{"Kopifellas":[],"Blackball":[],"Local Coffee People":[{"title":"120\nRobinson Road","address":"120 Robinson Road #02-01\nSingapore 068913","openingHours":"Monday – Friday\n7:30am – 4:30pm\n(Last order @ 4:00pm)\nClosed on Saturday, Sunday and Public Holiday","phone":"–","location":{"type":"Point","coordinates":[103.848684034738,1.27907635162327]},"chain":"Local Coffee People"},{"title":"CIMB\nPlaza","address":"30 Raffles Place #B1-18\nSingapore 048622","openingHours":"Monday – Friday\n7:30am – 4:30pm\n(Last order @ 4:00pm)\nClosed on Saturday, Sunday and Public Holiday","phone":"+65 9755 7690","location":{"type":"Point","coordinates":[103.851954013719,1.28419337002984]},"chain":"Local Coffee People"},{"title":"International\nPlaza","address":"10 Anson Road #01-55\nSingapore 079903","openingHours":"Monday – Friday\n7:30am – 4:30pm\n(Last order @ 4:00pm)\nClosed on Saturday, Sunday and Public Holiday","phone":"+65 9654 8026","location":{"type":"Point","coordinates":[103.845703218601,1.27573568143134]},"chain":"Local Coffee People"},{"title":"The\nSail","address":"2 Marina Boulevard #B1-08\nSingapore 018987","openingHours":"Monday – Friday\n7:30am – 4:30pm\n(Last order @ 4:00pm)\nClosed on Saturday, Sunday and Public Holiday","phone":"+65 9665 8724","location":{"type":"Point","coordinates":[103.852658562152,1.28076943476846]},"chain":"Local Coffee People"},{"title":"Capital\nSquare 3","address":"25 Church Street #01-08\nSingapore 049482","openingHours":"Monday – Friday\n7:30am – 4:30pm\n(Last order @ 4:00pm)\nClosed on Saturday, Sunday and Public Holiday","phone":"+65 8123 7022","location":{"type":"Point","coordinates":[103.848483585631,1.28386126899928]},"chain":"Local Coffee People"},{"title":"Income\n@ Raffles","address":"16 Collyer Quay #01-14\nSingapore 049318","openingHours":"Monday – Friday\n7:30am – 4:30pm\n(Last order @ 4:00pm)\nClosed on Saturday, Sunday and Public Holiday","phone":"+65 9012 9459","location":{"type":"Point","coordinates":[103.852502853417,1.28424248541962]},"chain":"Local Coffee People"},{"title":"Republic\nPlaza","address":"9 Raffles Place #B1-03\nSingapore 048619","openingHours":"Monday – Friday\n7:30am – 4:30pm\n(Last order @ 4:00pm)\nClosed on Saturday, Sunday and Public Holiday","phone":"#65 9755 4275","location":{"type":"Point","coordinates":[103.850848813815,1.2828873744144]},"chain":"Local Coffee People"}],"ChiCha":[{"title":"CHICHA SAN CHEN COMPASS ONE","address":"1 Sengkang Square, Compass One, #B1-10 Singapore 528833","openingHours":"11.00am - 9.30pm","phone":"","location":{"type":"Point","coordinates":[103.953050756306,1.34269199750599]},"chain":"ChiCha"},{"title":"CHICHA SAN CHEN NORTHPOINT CITY","address":"930 Yishun Ave 2, #B2-01, North Wing, Northpoint City, Singapore 768019","openingHours":"11.00am - 9.30pm","phone":"","location":{"type":"Point","coordinates":[103.836324536111,1.42875460572994]},"chain":"ChiCha"},{"title":"CHICHA SAN CHEN NEX","address":"23 Serangoon Central, #02-13A, NEX, Singapore 556083","openingHours":"Mon - Fri 11.00am - 9:00pm; Sat - Sun 11:00am - 9:15pm","phone":"","location":{"type":"Point","coordinates":[103.872590477492,1.35064579494756]},"chain":"ChiCha"},{"title":"CHICHA SAN CHEN SUN PLAZA","address":"30 Sembawang Dr, #01-06 Sun Plaza, Singapore 757713","openingHours":"11.00am - 9.30pm","phone":"","location":{"type":"Point","coordinates":[103.819530140823,1.44820036592783]},"chain":"ChiCha"},{"title":"CHICHA SAN CHEN WATERWAY POINT","address":"83 Punggol Central, #01-42 Waterway Point, Singapore 828761","openingHours":"11.00am - 9.30pm","phone":"","location":{"type":"Point","coordinates":[103.902188891645,1.4064128346795]},"chain":"ChiCha"},{"title":"CHICHA SAN CHEN WOODLANDS MRT","address":"Woodlands Drive 50, Avenue 2,#01-33 Singapore 738343","openingHours":"11.00am - 9.30pm","phone":"","location":{"type":"Point","coordinates":[103.785325969402,1.43681436169078]},"chain":"ChiCha"},{"title":"CHICHA SAN CHEN WOODLEIGH MALL","address":"11 Bidadari Park Drive, #01-32 The Woodleigh Mall, Singapore 367803","openingHours":"11.00am - 9.00pm","phone":"","location":{"type":"Point","coordinates":[103.871750105256,1.33869419209869]},"chain":"ChiCha"},{"title":"CHICHA SAN CHEN 313@SOMERSET","address":"313 Orchard Road, #03-41, 313@somerset, Singapore 238895","openingHours":"11.00am - 9.30pm","phone":"","location":{"type":"Point","coordinates":[103.838360664485,1.30101436404056]},"chain":"ChiCha"},{"title":"CHICHA SAN CHEN ANG MO KIO HUB","address":"53 Ang Mo Kio Ave 3, #B1-65A/65B, Singapore 569933","openingHours":"11.00am - 9.30pm","phone":"","location":{"type":"Point","coordinates":[103.848693181185,1.36923561405404]},"chain":"ChiCha"},{"title":"CHICHA SAN CHEN CHINATOWN POINT","address":"133 New Bridge Road, #B1-50B, Singapore 059413","openingHours":"11.00am - 9.00pm","phone":"","location":{"type":"Point","coordinates":[103.844697081142,1.28499882847401]},"chain":"ChiCha"},{"title":"CHICHA SAN CHEN CIMB PLAZA","address":"30 Raffles Place , #B1-20/21 CIMB Plaza, Singapore 048622","openingHours":"Mon - Fri 11.00am - 7.30pm; Closed on Sat / Sun / PH","phone":"","location":{"type":"Point","coordinates":[103.851954013719,1.28419337002984]},"chain":"ChiCha"},{"title":"CHICHA SAN CHEN KALLANG WAVE MALL","address":"1 Stadium Place, #01-52, Sports Hub Retail Mall Singapore 397628","openingHours":"11.00am - 9.00pm","phone":"","location":{"type":"Point","coordinates":[103.873149707591,1.30307515150401]},"chain":"ChiCha"},{"title":"CHICHA SAN CHEN MARINA SQUARE","address":"6 Raffles Boulevard, #02-208, Singapore 039594","openingHours":"Sun -","phone":"","location":{"type":"Point","coordinates":[103.857647591675,1.29098168416984]},"chain":"ChiCha"},{"title":"CHICHA SAN CHEN PLAZA SINGAPURA","address":"68 Orchard Road, #B1-K7, Singapore 238839","openingHours":"11.00am - 9.00pm","phone":"","location":{"type":"Point","coordinates":[103.845072743164,1.30083413030923]},"chain":"ChiCha"},{"title":"CHICHA SAN CHEN SUNTEC CITY","address":"No. 3, Temasek Boulevard, #B1-169 Fountain Court, Suntec City Mall, Singapore 038983","openingHours":"11.00am - 9.00pm","phone":"","location":{"type":"Point","coordinates":[103.858552585838,1.29571152468885]},"chain":"ChiCha"},{"title":"CHICHA SAN CHEN TAKASHIMAYA S.C., NGEE ANN CITY","address":"391 Orchard Road , #B2-03 Takashimaya S.C., Ngee Ann City, Singapore 238872","openingHours":"11.00am - 9.00pm","phone":"","location":{"type":"Point","coordinates":[103.834980235031,1.30236932766648]},"chain":"ChiCha"},{"title":"CHICHA SAN CHEN VELOCITY@NOVENA SQUARE","address":"238 Thomson Road, #01-07, Novena Square, Singapore 307685","openingHours":"10.30am - 9.00pm","phone":"","location":{"type":"Point","coordinates":[103.844120677616,1.3193876785315]},"chain":"ChiCha"},{"title":"CHICHA SAN CHEN WHEELOCK PLACE","address":"501 Orchard Road, #B1-05,Singapore 238880","openingHours":"Sun","phone":"","location":{"type":"Point","coordinates":[103.830642027577,1.30467628730252]},"chain":"ChiCha"},{"title":"CHICHA SAN CHEN BEDOK MALL","address":"311 New Upper Changi Road, Bedok Mall, #B2-24A, Singapore 467360","openingHours":"11.00am - 9.00pm","phone":"","location":{"type":"Point","coordinates":[103.929256259726,1.32473632812103]},"chain":"ChiCha"},{"title":"CHICHA SAN CHEN JEWEL CHANGI AIRPORT","address":"78 Airport Boulevard,#B2-213 Jewel Changi Airport, Singapore 819666","openingHours":"11.00am - 9.30pm","phone":"","location":{"type":"Point","coordinates":[103.989457201894,1.36023106736765]},"chain":"ChiCha"},{"title":"CHICHA SAN CHEN EASTPOINT MALL","address":"6 Simei St 6,#02-K1 Singapore 528833","openingHours":"11.00am - 9.00pm","phone":"","location":{"type":"Point","coordinates":[103.953050756306,1.34269199750599]},"chain":"ChiCha"},{"title":"CHICHA SAN CHEN PAYA LEBAR QUARTER","address":"10 Paya Lebar Road, #02-27, Singapore 409057","openingHours":"11.00am - 9.30pm","phone":"","location":{"type":"Point","coordinates":[103.892836694432,1.31756115921]},"chain":"ChiCha"},{"title":"CHICHA SAN CHEN WHITE SANDS","address":"1 Pasir Ris Central 3, #01-39B, Singapore 518457","openingHours":"11.00am - 9.00pm","phone":"","location":{"type":"Point","coordinates":[103.949733905672,1.37228761596577]},"chain":"ChiCha"},{"title":"CHICHA SAN CHEN HILLION MALL","address":"17 Petir Road, Hillion Mall,#B2-17 Singapore 678278","openingHours":"11.00am - 9.30pm","phone":"","location":{"type":"Point","coordinates":[103.762842789877,1.37843100800213]},"chain":"ChiCha"},{"title":"CHICHA SAN CHEN JEM","address":"50 Jurong Gateway Road, #01-17, JEM, Singapore 608549","openingHours":"11:00am - 9.30pm","phone":"","location":{"type":"Point","coordinates":[103.743359442234,1.33332819303974]},"chain":"ChiCha"},{"title":"CHICHA SAN CHEN JURONG POINT","address":"63 Jurong West Central 3,#03-32/33 Jurong Point, Singapore 648831","openingHours":"11.00am - 9.30pm","phone":"","location":{"type":"Point","coordinates":[103.699821137457,1.35110661918467]},"chain":"ChiCha"},{"title":"CHICHA SAN CHEN NTU","address":"Fine Food @ South Spine Foodcourt, 50 Nanyang Avenue, Singapore 639798","openingHours":"Mon - Fri 11.00am - 7.30pm; Sat 11.00am - 1.30pm; Closed on Sun / PH","phone":"","location":{"type":"Point","coordinates":[103.682773793248,1.34382260860561]},"chain":"ChiCha"},{"title":"CHICHA SAN CHEN LOT ONE","address":"21 Choa Chu Kang Ave 4, #01-05, Lot One Shoppers' Mall, Singapore 689812","openingHours":"11.00am - 9.30pm","phone":"","location":{"type":"Point","coordinates":[103.745022476677,1.38493874036122]},"chain":"ChiCha"},{"title":"CHICHA SAN CHEN STAR VISTA","address":"1 Vista Exchange Green,#02-28B The Star Vista, Singapore 138617","openingHours":"Sun - Thu 11.00am - 9.00pm; Fri - Sat 11.00am - 9.30pm","phone":"","location":{"type":"Point","coordinates":[103.788462732266,1.30681500712523]},"chain":"ChiCha"},{"title":"CHICHA SAN CHEN NUS","address":"1 Create Way, University Town - NUS, #01-04, Singapore 138608","openingHours":"11am - 7.30pm","phone":"","location":{"type":"Point","coordinates":[103.773230602745,1.30547903926184]},"chain":"ChiCha"}],"Playmade":[{"title":"Singapore","location":{"type":"Point","coordinates":[103.838360664485,1.30101436404056]},"openingHours":"11am - 10pm (Daily)","phone":"+65 9826 4507","address":"313 Orchard Rd, #B3- 08, Singapore 238895","chain":"Playmade"},{"title":"Ang Mo Kio Hu (Playground)","location":{"type":"Point","coordinates":[103.848693181185,1.36923561405404]},"openingHours":"11am - 10pm (Weekdays), 10.30am - 10pm (Weekends)","phone":"+65 9784 5361","address":"53 Ang Mo Kio Avenue 3, #B1- 51B, Singapore 569933","chain":"Playmade"},{"title":"Bukit Panjang Plaza","location":{"type":"Point","coordinates":[103.764357180314,1.37992045176243]},"openingHours":"11am - 10pm (Weekdays), 10.30am - 10pm (Weekends)","phone":"+65 6235 1445","address":"1 Jeleu Rd, #01-17, Plaza, Singapore 677743","chain":"Playmade"},{"title":"Buona Vista MRT Station","location":{"type":"Point","coordinates":[103.788696211509,1.30768350227128]},"openingHours":"11am - 10pm (Weekdays), 10.30am - 10pm (Weekends)","phone":"+65 9863 6981","address":"100 North Buona Vista Road, #01-08, Singapore 139345 ","chain":"Playmade"},{"title":"Chinatown Point","location":{"type":"Point","coordinates":[103.844697081142,1.28499882847401]},"openingHours":"11am - 9pm (Daily)","phone":"+65 8034 3961","address":"133 New Bridge Road, #B1-42 Chinatown Point, Singapore 059413 ","chain":"Playmade"},{"title":"City Square Mall","location":{"type":"Point","coordinates":[103.856724057693,1.31135169933195]},"openingHours":"11am - 10pm (Daily)","phone":"+65 8836 3318","address":"180 Kitchener Road, #B2-K10 City Square Mall, Singapore 208539 ","chain":"Playmade"},{"title":"Depot Heights Shopping Centre","location":{"type":"Point","coordinates":[103.810298189643,1.28096680702384]},"openingHours":"11am - 8pm (Weekdays), 10.30am - 8pm (Weekends)","phone":"+65 6253 9252","address":"108 Depot Road, #01-03, Singapore 100108 ","chain":"Playmade"},{"title":"Hougang Mall","location":{"type":"Point","coordinates":[103.893883460466,1.37253315637342]},"openingHours":"11am - 10pm (Weekdays), 10.30am - 10pm (Weekends)","phone":"+65 6214 9134","address":"90 Hougang Ave 10, #01-25, Singapore 538766 ","chain":"Playmade"},{"title":"Jurong Point","location":{"type":"Point","coordinates":[103.706685012654,1.33945200436319]},"openingHours":"11am - 10pm (Weekdays), 10.30am - 10pm (Weekends)","phone":"+65 9819 8657","address":"1 Jurong West Central 2, #B1-36A, Singapore 648886","chain":"Playmade"},{"title":"Marina Bay Link Mall","location":{"type":"Point","coordinates":[103.854773147641,1.27992126239604]},"openingHours":"11am - 6.30pm (Weekdays & Pulic Holidays Eve), Closed (Weekends & Pulic Holidays)","phone":"+65 8819 0474","address":"8A Marina Boulevard, #B2-43, Singapore 018984 ","chain":"Playmade"},{"title":"Nex Shopping Mall","location":{"type":"Point","coordinates":[103.872590477492,1.35064579494756]},"openingHours":"11am - 10pm (Weekdays), 10.30am - 10pm (Weekends)","phone":"+65 6509 8727","address":"23 Serangoon Central, #04-17, Singapore 556083 ","chain":"Playmade"},{"title":"Northpoint City","location":{"type":"Point","coordinates":[103.836324536111,1.42875460572994]},"openingHours":"11am - 10pm (Weekdays), 10.30am - 10pm (Weekends)","phone":"+65 6970 4739","address":"1 Northpoint Drive, South Wing of Northpoint City, #01-154,  Singapore 768019","chain":"Playmade"},{"title":"Northshore Plaza II","location":{"type":"Point","coordinates":[103.901321830086,1.41796143093751]},"openingHours":"11am - 10pm (Weekdays), 10.30am - 10pm (Weekends)","phone":"+65 80857580","address":"418 Northshore Drive, #03-02,  Singapore 820418","chain":"Playmade"},{"title":"PLQ Mall","location":{"type":"Point","coordinates":[103.892836694432,1.31756115921]},"openingHours":"11am - 10pm (Daily)","phone":"+65 6502 7856","address":"10 Paya Lear Rd, #B2-K5, Singapore 409057","chain":"Playmade"},{"title":"Seletar Mall (Playground)","location":{"type":"Point","coordinates":[103.876213231014,1.39131549124709]},"openingHours":"11am - 10pm (Weekdays), 10.30am - 10pm (Weekends)","phone":"+65 9826 7642","address":"33 Sengkang West Avenue, #03-K3, The Seletar Mall, Singapore 797653 ","chain":"Playmade"},{"title":"Sengkang Grand Mall","location":{"type":"Point","coordinates":[103.892418758836,1.38389417561466]},"openingHours":"11am - 10pm (Weekdays), 10.30am - 10pm (Weekends)","phone":"+65 8804 3240","address":"70 Compassavale Bow, #01-67, Singapore 544692 ","chain":"Playmade"},{"title":"Suntec City (Playground)","location":{"type":"Point","coordinates":[103.858552585838,1.29571152468885]},"openingHours":"11am - 10pm (Sunday - Thursday), 11am - 10.30pm (Friday - Saturday)","phone":"+65 9139 3419","address":"3 Temasek Blvd, #B1-151 Suntec City, North Tower, Singapore 038983","chain":"Playmade"},{"title":"Tampines 1","location":{"type":"Point","coordinates":[103.945141172369,1.35432321225804]},"openingHours":"11am - 10pm (Weekdays), 10.30am - 10pm (Weekends)","phone":"+65 6509 9693","address":"10 Tampines Central 1, #01-59, Singapore 529536","chain":"Playmade"},{"title":"Tiong Bahru Plaza","location":{"type":"Point","coordinates":[103.827550771424,1.28633177192832]},"openingHours":"11am - 10pm (Weekdays), 10.30am - 10pm (Weekends)","phone":"+65 6261 0787","address":"302 Tiong Bahru Rd, #01-154, Singapore 168732 ","chain":"Playmade"},{"title":"Toa Payoh Central","location":{"type":"Point","coordinates":[103.848832062985,1.33297850244995]},"openingHours":"11am - 10pm (Daily), 10.30am - 10pm (Weekends)","phone":"+65 8014 9820","address":"190 Lorong  6 Toa Payoh, #01-564B, Singapore 310190 ","chain":"Playmade"},{"title":"Velocity@Novena Square","location":{"type":"Point","coordinates":[103.843656761867,1.32021100706836]},"openingHours":"11am - 10pm (Weekdays), 10.30am - 10pm (Weekends)","phone":"+65 89312979","address":"238 Thomson Road, #02-52 Velocity @ Novena Square,  Singapore 307683","chain":"Playmade"},{"title":"Vivo City","location":{"type":"Point","coordinates":[103.822476140505,1.26434458658544]},"openingHours":"11am - 10pm (Weekdays), 10.30am - 10pm (Weekends)","phone":"+65 9088 3712","address":"Vivo City, #02-118, 1 HarourFront Walk, Singapore 098585  ","chain":"Playmade"},{"title":"Waterway Point Shopping Centre","location":{"type":"Point","coordinates":[103.902188891645,1.4064128346795]},"openingHours":"11am - 10pm (Weekdays), 10.30am - 10pm (Weekends)","phone":"+65 6242 9505","address":"83 Punggol Central, #B1-K6, Singapore 828761","chain":"Playmade"},{"title":"Westgate","location":{"type":"Point","coordinates":[103.742766489597,1.33415752008876]},"openingHours":"11am - 10pm (Weekdays), 10.30am - 10pm (Weekends)","phone":"+65 6970 8939","address":"3 Gateway Dr, #01-K1, Singapore 608532","chain":"Playmade"},{"title":"Wisteria Mall","location":{"type":"Point","coordinates":[103.841317292608,1.41798969122298]},"openingHours":"11am - 10pm (Weekdays), 10.30am - 10pm (Weekends)","phone":"+65 8900 9193","address":"598 Yishun Ring Rd, #01-24, Singapore 768698","chain":"Playmade"},{"title":"Malaysia","location":null,"openingHours":"10.30am - 9.30pm (Weekdays), 10.30am - 9.30pm (Weekends)","phone":"03-8959 8948","address":"LG-76A, IOI City Mall, 62502 Putrajaya, Selangor, Malaysia","chain":"Playmade"},{"title":"IOI Mall Puchong","location":null,"openingHours":"10.30am - 9.30pm (Weekdays), 10.30am - 9.30pm (Weekends)","phone":"03-5888 9132","address":"EF23A, First Floor, IOI Mall Puchong, Jalan Puchong, Bandar Puchong Jaya, 47170 Puchong, Selangor Darul Ehsan","chain":"Playmade"},{"title":"Sunway Velocity","location":null,"openingHours":"10.30am - 9.30pm (Weekdays), 10.30am - 9.30pm (Weekends)","phone":"03-9202 1556","address":"3-37 Lingkaran SV2, Sunway Velocity, 55100 Kuala Lumpur, Wilayah Persekutuan Kuala Lumpur","chain":"Playmade"}],"Gong Cha":[{"title":"313 Somerset","address":"313 Orchard Road  #02-50, Singapore 238895","openingHours":"Mon - Sun 11am - 9pm","phone":"","location":{"type":"Point","coordinates":[103.838360664485,1.30101436404056]},"chain":"Gong Cha"},{"title":"Bugis Junction","address":"Bugis Junction  #03-08, 200 Victoria Street , Singapore 188021","openingHours":"Mon - \n Thu 11.00am - 9.00pm \nFri - \n Sun 10.00am - 10.00pm \nPH - \n 10.00am - 10.00pm ","phone":"","location":{"type":"Point","coordinates":[103.855411173758,1.29911287475873]},"chain":"Gong Cha"},{"title":"Causeway Point","address":"Causeway Point 1 Woodlands Square   #02-K10, Singapore 738099","openingHours":"Mon - \n Sun 10am - 10pm","phone":"","location":{"type":"Point","coordinates":[103.78568873405,1.43600784474269]},"chain":"Gong Cha"},{"title":"Century Square","address":"2 Tampines Central 5  #01-39, Century Square, Singapore 529509","openingHours":"Mon - \n Sun 10am - 10pm","phone":"","location":{"type":"Point","coordinates":[103.943812302253,1.35236829566862]},"chain":"Gong Cha"},{"title":"Changi Hospital","address":"6A Simei street 3, #01-03   Singapore , Singapore , 529905","openingHours":"Mon - \n Fri 10am - 6pm\nSat Closed\n\nSun Closed\n\nPH closed","phone":"","location":{"type":"Point","coordinates":[103.948193352903,1.34131853771386]},"chain":"Gong Cha"},{"title":"Compass One","address":"Compass One  #02-40/41, Sengkang Square, Singapore 545078","openingHours":"Mon -Sun 10am - 10pm","phone":"","location":{"type":"Point","coordinates":[103.89507054384,1.39205314156706]},"chain":"Gong Cha"},{"title":"Eunos MRT","address":"30 Eunos Crescent  #01-10, Eunos MRT Station, Singapore 409423","openingHours":"Mon - \n Sun 11am - 10pm","phone":"","location":{"type":"Point","coordinates":[103.903645566693,1.31965992885645]},"chain":"Gong Cha"},{"title":"Great World","address":"1 Kim Seng Promenade  #B1-K104, Great World City, Singapore 237994","openingHours":"Mon - \n Fri 11am - 9pm \nSat - \n 10am - 10pm \nSun & PH - \n 10am - 9pm ","phone":"","location":{"type":"Point","coordinates":[103.831757911057,1.29380235105066]},"chain":"Gong Cha"},{"title":"Hougang Mall","address":"Hougang Mall, 90 Hougang Ave 10   #B1-14/15, Singapore 538766","openingHours":"Mon - \nThu 11am - 10pm\nFri - \n Sun 10.00am - 10.00pm \n","phone":"","location":{"type":"Point","coordinates":[103.893883460466,1.37253315637342]},"chain":"Gong Cha"},{"title":"i12 Katong","address":"112 East Coast Road  #B1-36, Singapore 428802","openingHours":"Mon - \nThu 11am - 9pm\nFri - \n Sun 10.00am - 10.00pm ","phone":"","location":{"type":"Point","coordinates":[103.905046110228,1.30520653617341]},"chain":"Gong Cha"},{"title":"Lot One Shoppers' Mall","address":"21 Choa Chu Kang Ave 4   #04-18A, Singapore 689812","openingHours":"Mon - Sun 10am - 10pm","phone":"","location":{"type":"Point","coordinates":[103.745022476677,1.38493874036122]},"chain":"Gong Cha"},{"title":"Millenia Walk","address":"9 Raffles Boulevard  #01-91A Millenia Walk, Singapore 039596","openingHours":"Mon - \nSun 12pm - 8pm\nPH - \n 12pm - 8pm ","phone":"","location":{"type":"Point","coordinates":[103.859343968909,1.29296504146626]},"chain":"Gong Cha"},{"title":"NEX","address":"23 Serangoon Central  #B1-44, Singapore 556083","openingHours":"Mon - Sun 10am - 10pm","phone":"","location":{"type":"Point","coordinates":[103.872590477492,1.35064579494756]},"chain":"Gong Cha"},{"title":"Northpoint","address":"930 Yishun Avenue 2  #01-06, North Wing of Northpoint City, Singapore 769098","openingHours":"Mon - \n Sun 10am - 10pm","phone":"","location":{"type":"Point","coordinates":[103.836107231373,1.42924414326245]},"chain":"Gong Cha"},{"title":"NUS Science Canteen Frontier","address":"#K-5 3 Science Drive 2  Singapore, 117543","openingHours":"Mon - \n Fri 11am - 7pm\nSat - closed \nSun - closed\nPH - closed","phone":"","location":{"type":"Point","coordinates":[103.780344910359,1.29678644285318]},"chain":"Gong Cha"},{"title":"NUS U-Town","address":"Stall 12, 2 College Ave West, Stephen Riady Centre,   #02-01, Singapore 138607","openingHours":"Mon - \nFri 11am - 7pm\nSat - \n Sun 11.00am - 6.00pm \nPH - \n 11.00am - 6.00pm ","phone":"","location":{"type":"Point","coordinates":[103.772461624378,1.30479483284214]},"chain":"Gong Cha"},{"title":"Pasir Ris MRT","address":"10 Pasir Ris Central  #01-06, Pasir Ris MRT Station, Singapore 519634","openingHours":"Mon - \nThu 11am - 10pm\nFri - \n Sun 10.00am - 10.00pm \n","phone":"","location":{"type":"Point","coordinates":[103.949265083922,1.37300805046319]},"chain":"Gong Cha"},{"title":"Senja","address":"Blk 642 Senja Rd  #01-06, Singapore 670642","openingHours":"Mon - \nThu 12pm - 9pm\nFri - \n Sun 12.00pm - 9.00pm ","phone":"","location":{"type":"Point","coordinates":[103.761960181682,1.38712667134352]},"chain":"Gong Cha"},{"title":"Simei MRT","address":"30 Simei Street 3  #01-04, Simei MRT Station , Singapore 529888","openingHours":"Mon - Sun 11am - 10pm","phone":"","location":{"type":"Point","coordinates":[103.95328573703,1.34320821107717]},"chain":"Gong Cha"},{"title":"Singapore University of Technology & Design  (SUTD)","address":"8 Somapah Road  #01-302, Singapore 487372","openingHours":"Mon - \n Fri 11.30am - 5.00pm\n Sat - Closed \n Sun - Closed \n PH - Closed ","phone":"","location":{"type":"Point","coordinates":[103.962860116421,1.3401716369901]},"chain":"Gong Cha"},{"title":"SMU café 2.0","address":"50 Stamford Road  #01-01, Lee Kong Chian of Business, Singapore 178899","openingHours":" Mon - \nFri 11am - 7pm\n Sat - Closed \n Sun - Closed \n PH - Closed ","phone":"","location":{"type":"Point","coordinates":[103.850566200283,1.29509045190873]},"chain":"Gong Cha"},{"title":"Tampines MRT","address":"20 Tampines Central 1   #01-30 Tampines MRT, Singapore, 529538","openingHours":"Mon - \nThu 11am - 10pm\nFri - \n Sun 10.00am - 10.00pm \n","phone":"","location":{"type":"Point","coordinates":[103.945042729998,1.35369188683393]},"chain":"Gong Cha"},{"title":"Tan Tock Seng Hospital","address":"16 Jalan Tan Tock Seng  #B1-03, Tan Tock Seng Hospital, Singapore 308442","openingHours":"Mon - \n Fri 10am - 7pm\nSat,Sun & PH - Closed","phone":"","location":{"type":"Point","coordinates":[103.847798216735,1.32139722330474]},"chain":"Gong Cha"},{"title":"Telok Ayer","address":"121 Telok Ayer Street  #01-01, Singapore 068590","openingHours":" Mon - \nFri 10am - 7pm\n Sat & Sun - Closed \n PH - Closed ","phone":"","location":{"type":"Point","coordinates":[103.848139912125,1.28129867556401]},"chain":"Gong Cha"},{"title":"Toa Payoh","address":"Blk 190 Lorong 6   Toa Payoh #01-546, Singapore 310190","openingHours":"Mon -Sun 10am - 10pm","phone":"","location":{"type":"Point","coordinates":[103.848832062985,1.33297850244995]},"chain":"Gong Cha"},{"title":"Westgate","address":"3 Gateway Drive  #02-49, Westgate, Singapore 608532","openingHours":"Mon - \nThu 11am - 9pm\nFri - \n Sat 10.00am - 10.00pm \nSun \n 10.00am - 9.00pm ","phone":"","location":{"type":"Point","coordinates":[103.742766489597,1.33415752008876]},"chain":"Gong Cha"},{"title":"Woodlands MRT","address":"30 Woodlands  Avenue 2 #01-40, Woodlands MRT Station, Singapore 738343","openingHours":"Mon - \n Sun 10am - 10pm","phone":"","location":{"type":"Point","coordinates":[103.785325969402,1.43681436169078]},"chain":"Gong Cha"}],"Mr Coconut":[{"title":"AMK HUB","address":"53 Ang Mo Kio Avenue 3 #B1-69/70/71 Singapore 569933","openingHours":"Mon – Sun : 10am – 9.45pm","phone":"","location":{"type":"Point","coordinates":[103.848693181185,1.36923561405404]},"chain":"Mr Coconut"},{"title":"ANCHORPOINT","address":"370 Alexandra Road #B1-53/54 Singapore 159953","openingHours":"Mon – Sun : 11am – 8.45pm","phone":"","location":{"type":"Point","coordinates":[103.805009964592,1.28861469030586]},"chain":"Mr Coconut"},{"title":"BEDOK MALL","address":"311 New Upper Changi Rd #01-K1 Singapore 467360","openingHours":"Mon – Sun : 10am – 9.45pm","phone":"","location":{"type":"Point","coordinates":[103.929256259726,1.32473632812103]},"chain":"Mr Coconut"},{"title":"Boon Lay MRT","address":"301 Boon Lay Way #01-29 Boon Lay MRT Singapore 649846","openingHours":"Mon – Sun : 10am – 9.45pm","phone":"","location":{"type":"Point","coordinates":[103.706064622772,1.33860405469845]},"chain":"Mr Coconut"},{"title":"Bugis Street","address":"3 New Bugis Street #01-201 Singapore 188867","openingHours":"Mon – Sun : 10am – 9.45pm","phone":"","location":{"type":"Point","coordinates":[103.854903071386,1.30048327348075]},"chain":"Mr Coconut"},{"title":"BUKIT BATOK MRT","address":"Bukit Batok Central, 10, #01-04A Singapore 659958","openingHours":"Mon – Sun : 10am – 9.45pm","phone":"","location":{"type":"Point","coordinates":[103.749566478309,1.34903331201636]},"chain":"Mr Coconut"},{"title":"CAUSEWAY POINT","address":"1 Woodlands Square #B1-K02 Singapore 738099","openingHours":"Mon – Sun : 10am – 9.45pm","phone":"","location":{"type":"Point","coordinates":[103.78568873405,1.43600784474269]},"chain":"Mr Coconut"},{"title":"Century Square","address":"2 Tampines Central 5, #01-32 Singapore 529509","openingHours":"Mon – Sun : 10am – 9.45pm","phone":"","location":{"type":"Point","coordinates":[103.943812302253,1.35236829566862]},"chain":"Mr Coconut"},{"title":"Chinatown point","address":"133 New Bridge Rd, #01-05 Singapore 059413","openingHours":"Mon – Sun : 11am – 9.45pm","phone":"","location":{"type":"Point","coordinates":[103.844697081142,1.28499882847401]},"chain":"Mr Coconut"},{"title":"City square Mall","address":"180 Kitchener Road #B2-18A, City Square Mall Singapore 208539","openingHours":"Mon – Sun : 10am – 9.45pm","phone":"","location":{"type":"Point","coordinates":[103.856724057693,1.31135169933195]},"chain":"Mr Coconut"},{"title":"CLARKE QUAY","address":"6 Eu Tong Sen Street, The Central #01-37 Singapore 059817","openingHours":"Mon – Sun : 11am – 9.45pm","phone":"","location":{"type":"Point","coordinates":[103.846797382693,1.2888737988701]},"chain":"Mr Coconut"},{"title":"CLEMENTI MALL","address":"3155 Commonwealth Ave W, #B1-K13 Singapore 129588","openingHours":"Mon – Sun : 10am – 9.45pm","phone":"","location":{"type":"Point","coordinates":[103.764596439304,1.31555354277949]},"chain":"Mr Coconut"},{"title":"COMPASS ONE","address":"1 Sengkang Square #02-33 Singapore 545078","openingHours":"Mon – Sun : 10am – 9.45pm","phone":"","location":{"type":"Point","coordinates":[103.89507054384,1.39205314156706]},"chain":"Mr Coconut"},{"title":"DOWNTOWN EAST","address":"1 Pasir Ris Close, #01-330 & #01-331 Singapore 519599","openingHours":"Mon – Sun : 11am – 9.45pm","phone":"","location":{"type":"Point","coordinates":[103.95514122442,1.3766980678365]},"chain":"Mr Coconut"},{"title":"EAST POINT MALL","address":"3 Simei Street 6 #01-03A Singapore 528833","openingHours":"Mon – Sun : 11am – 9.45pm","phone":"","location":{"type":"Point","coordinates":[103.953050756306,1.34269199750599]},"chain":"Mr Coconut"},{"title":"EUNOS MRT","address":"30 Eunos Crescent #01-11 Singapore 409423","openingHours":"Mon – Sun : 10am – 8.45pm","phone":"","location":{"type":"Point","coordinates":[103.903645566693,1.31965992885645]},"chain":"Mr Coconut"},{"title":"FAR EAST PLAZA","address":"14 Scotts Road #01-14C Singapore 228213","openingHours":"Mon – Sun : 11am – 9.45pm","phone":"","location":{"type":"Point","coordinates":[103.833818438639,1.30730468891062]},"chain":"Mr Coconut"},{"title":"Fusionopolis One","address":"1 Fusionopolis Way, Connexis #B1-05 Singapore 138632","openingHours":"Mon – Fri: 10am – 7.45pm\nClosed on Sat, Sun and Public Holidays","phone":"","location":{"type":"Point","coordinates":[103.787640882653,1.2995985718601]},"chain":"Mr Coconut"},{"title":"Great World City","address":"1 Kim Seng Promenade, #B1-K115Great World City Singapore 237994","openingHours":"Mon – Sun : 10am – 9.45pm","phone":"","location":{"type":"Point","coordinates":[103.831757911057,1.29380235105066]},"chain":"Mr Coconut"},{"title":"Guoco Tower","address":"7 Wallich Street, #B2-01, Guoco TowerSingapore 078884","openingHours":"Mon – Sun : 10am – 8.45pm","phone":"","location":{"type":"Point","coordinates":[103.845155395387,1.27672492702287]},"chain":"Mr Coconut"},{"title":"HeadQuarter","address":"15 Senoko Drive #05-09 JTC Food hub, Senoko Singapore 758202","openingHours":"Telephone: +65 6980 6826","phone":"","location":{"type":"Point","coordinates":[103.798498510589,1.46065559995016]},"chain":"Mr Coconut"},{"title":"Heartland Mall","address":"205 Hougang Street 21, #01-03, Heartland Mall KovanSingapore 530205","openingHours":"Mon – Sun : 11am – 9.45pm","phone":"","location":{"type":"Point","coordinates":[103.885167372726,1.35954177325561]},"chain":"Mr Coconut"},{"title":"Hillion Mall","address":"17 Petir Road #B2-35 Hillion Mall Singapore 678278","openingHours":"Mon – Sun : 10am – 9.45pm","phone":"","location":{"type":"Point","coordinates":[103.762842789877,1.37843100800213]},"chain":"Mr Coconut"},{"title":"HOUGANG MALL","address":"90 Hougang Ave 10 #01-14 Singapore 538766","openingHours":"Mon – Sun : 10am – 9.45pm","phone":"","location":{"type":"Point","coordinates":[103.893883460466,1.37253315637342]},"chain":"Mr Coconut"},{"title":"IMM","address":"2 Jurong East Street 21, #01-K05 Singapore 609601","openingHours":"Mon – Sun : 10am – 9.45pm","phone":"","location":{"type":"Point","coordinates":[103.746877132868,1.33491758755437]},"chain":"Mr Coconut"},{"title":"JEWEL CHANGI AIRPORT","address":"78 Airport Boulevard #B2-268 Singapore 819666","openingHours":"Mon – Sun : 10.30am – 9.15pm","phone":"","location":{"type":"Point","coordinates":[103.989457201894,1.36023106736765]},"chain":"Mr Coconut"},{"title":"JUNCTION 8","address":"9 Bishan Pl #B1-K6 Singapore 579837","openingHours":"Mon – Sun: 10am – 9.45pm","phone":"","location":{"type":"Point","coordinates":[103.848515664081,1.3501820033849]},"chain":"Mr Coconut"},{"title":"Jurong Point","address":"1 Jurong West Central 2, #01-K1 Singapore 648886","openingHours":"Mon – Sun : 10am – 9.45pm","phone":"","location":{"type":"Point","coordinates":[103.706685012654,1.33945200436319]},"chain":"Mr Coconut"},{"title":"NEX","address":"23 Serangoon Central #03-K16/17 Singapore 556083","openingHours":"Mon – Sun : 10.30am – 10.15pm","phone":"","location":{"type":"Point","coordinates":[103.872590477492,1.35064579494756]},"chain":"Mr Coconut"},{"title":"NORTHPOINT CITY","address":"930 Yishun Avenue 2 #B1-42 Singapore 769098","openingHours":"Mon – Sun : 10am – 9.45pm","phone":"","location":{"type":"Point","coordinates":[103.836107231373,1.42924414326245]},"chain":"Mr Coconut"},{"title":"NOVENA SQUARE","address":"238 Thomson Road #02-53A Singapore 307683","openingHours":"Mon – Sun : 10am – 8.45pm","phone":"","location":{"type":"Point","coordinates":[103.843656761867,1.32021100706836]},"chain":"Mr Coconut"},{"title":"one holland village","address":"7 Holland Village Way #01-38 Singapore 275748","openingHours":"Mon – Sun : 11am – 9.45pm","phone":"","location":{"type":"Point","coordinates":[103.794145546471,1.31104916811064]},"chain":"Mr Coconut"},{"title":"ONE PUNGGOL HUB","address":"1 Punggol Drive #01-03 Singapore 828629","openingHours":"Mon – Sun : 11am – 9.45pm","phone":"","location":{"type":"Point","coordinates":[103.905104199124,1.40829892495231]},"chain":"Mr Coconut"},{"title":"ONE RAFFLES PLACE","address":"1 Raffles Place #B1-35 Singapore 048616","openingHours":"Mon – Fri: 10am – 7.45pm\nClosed on Sat, Sun and Public Holidays","phone":"","location":{"type":"Point","coordinates":[103.851072545834,1.28434954622306]},"chain":"Mr Coconut"},{"title":"ORCHARD GATEWAY","address":"277 Orchard Road #01-02 Singapore 238858","openingHours":"Mon – Sun : 10am – 9.45pm","phone":"","location":{"type":"Point","coordinates":[103.839325098352,1.30048912114759]},"chain":"Mr Coconut"},{"title":"PARKWAY PARADE","address":"80 Marine Parade Rd #B1-83J Singapore 449269","openingHours":"Mon – Sun : 11am – 9.45pm","phone":"","location":{"type":"Point","coordinates":[103.90533928065,1.30091736056425]},"chain":"Mr Coconut"},{"title":"PAYA LEBAR QUARTER","address":"10 Paya Lebar Road #B2-K8 Singapore 409057","openingHours":"Mon – Sun : 10am – 9.45pm","phone":"","location":{"type":"Point","coordinates":[103.892836694432,1.31756115921]},"chain":"Mr Coconut"},{"title":"PLAZA SINGAPURA","address":"68 Orchard Road #B2-48/49 Singapore 238839","openingHours":"Mon – Sun : 10am – 9.45pm","phone":"","location":{"type":"Point","coordinates":[103.845072743164,1.30083413030923]},"chain":"Mr Coconut"},{"title":"RAFFLES CITY","address":"252 North Bridge Rd #B1-69 Singapore 179103","openingHours":"Mon – Sun : 10am – 9.45pm","phone":"","location":{"type":"Point","coordinates":[103.852768324281,1.29376028134073]},"chain":"Mr Coconut"},{"title":"Seletar Mall","address":"33 Sengkang West Avenue #B1-22 Singapore 797653","openingHours":"Mon – Sun : 10am – 9.45pm","phone":"","location":{"type":"Point","coordinates":[103.876213231014,1.39131549124709]},"chain":"Mr Coconut"},{"title":"Sengkang Grand Mall","address":"70 Compassvale Bow #01-08 Singapore 544692","openingHours":"Mon – Sun : 11am – 9.45pm","phone":"","location":{"type":"Point","coordinates":[103.892418758836,1.38389417561466]},"chain":"Mr Coconut"},{"title":"Siloso Beach","address":"60 Siloso Beach Walk #01-02 Singapore 098997","openingHours":"Mon – Sun : 10.30am – 9.15pm","phone":"","location":{"type":"Point","coordinates":[103.817162874792,1.25170699462885]},"chain":"Mr Coconut"},{"title":"Sun plaza","address":"30 Sembawang Drive #01-13 Singapore 757713","openingHours":"Mon – Sun : 10am – 9.45pm","phone":"","location":{"type":"Point","coordinates":[103.819530140823,1.44820036592783]},"chain":"Mr Coconut"},{"title":"SUNTEC CITY","address":"3 Temasek Boulevard #01-K3 Singapore 038983","openingHours":"Mon – Sun : 11am – 9.45pm","phone":"","location":{"type":"Point","coordinates":[103.858552585838,1.29571152468885]},"chain":"Mr Coconut"},{"title":"Tampines 1","address":"10 Tampines Central 1, #B1-K19 Singapore 529536","openingHours":"Mon – Sun : 10am – 9.45pm","phone":"","location":{"type":"Point","coordinates":[103.945141172369,1.35432321225804]},"chain":"Mr Coconut"},{"title":"The Star Vista","address":"1 Vista Exchange Green, #B1-37B Singapore 138617","openingHours":"Mon – Sun : 11am – 9.45pm","phone":"","location":{"type":"Point","coordinates":[103.788462732266,1.30681500712523]},"chain":"Mr Coconut"},{"title":"Tiong Bahru Plaza","address":"302 Tiong Bahru Rd, #01-153 Singapore 168732","openingHours":"Mon – Sun : 10am – 9.45pm","phone":"","location":{"type":"Point","coordinates":[103.827550771424,1.28633177192832]},"chain":"Mr Coconut"},{"title":"TOA PAYOH","address":"Blk 190, Toa Payoh Lorong 6, #01-562 Singapore 310190","openingHours":"Mon – Sun : 10am – 9.45pm","phone":"","location":{"type":"Point","coordinates":[103.848832062985,1.33297850244995]},"chain":"Mr Coconut"},{"title":"Vivo city","address":"1 HarbourFront Walk, #B2-33A Singapore 098585","openingHours":"Mon – Sun : 10am – 9.45pm","phone":"","location":{"type":"Point","coordinates":[103.822476140505,1.26434458658544]},"chain":"Mr Coconut"},{"title":"WATERWAY POINT","address":"83 Punggol Central #01-K7 Singapore 828761","openingHours":"Mon – Sun : 10am – 9.45pm","phone":"","location":{"type":"Point","coordinates":[103.902188891645,1.4064128346795]},"chain":"Mr Coconut"},{"title":"WESTGATE","address":"3 Gateway Drive, #B2-K17 Singapore 608532","openingHours":"Mon – Sun : 10.30am – 9.15pm","phone":"","location":{"type":"Point","coordinates":[103.742766489597,1.33415752008876]},"chain":"Mr Coconut"},{"title":"White Sands","address":"1 Pasir Ris Central St 3, White Sands, #01-01 Singapore 518457","openingHours":"Mon – Sun : 10am – 9.45pm","phone":"","location":{"type":"Point","coordinates":[103.949733905672,1.37228761596577]},"chain":"Mr Coconut"},{"title":"Wisma Orchard","address":"435 Orchard Road, Wisma Atria, #B1-49 Singapore 238877","openingHours":"Mon – Sun : 10am – 9.45pm","phone":"","location":{"type":"Point","coordinates":[103.833200970183,1.30370452023703]},"chain":"Mr Coconut"},{"title":"Woodleigh Mall","address":"11 Bidadari Park Drive, The Woodleigh Mall, #B1-K27 Singapore 367803","openingHours":"Mon – Sun : 10am – 9.45pm","phone":"","location":{"type":"Point","coordinates":[103.871750105256,1.33869419209869]},"chain":"Mr Coconut"}],"LiHO":[{"title":"LiHO @ City Square Mall","address":"City Square Mall\n                                             \n                                                                                        #B2-K3/K4,  180 Kitchener Road, 208539","phone":"Tel : 6509 3803","chain":"LiHO","location":{"type":"Point","coordinates":[103.856724057693,1.31135169933195]}},{"title":"LiHO @ Tanjong Pagar MRT Xchange","address":"Tanjong Pagar MRT Station (EW15)\n                                             \n                                                                                        #B1-08,  120 Maxwell Road, 069119","phone":"Tel : 6221 4338","chain":"LiHO","location":{"type":"Point","coordinates":[103.845560901318,1.27653178866522]}},{"title":"LiHO @ 100 AM","address":"100 AM\n                                             \n                                                                                        #02-25,  100 Tras Street, 079027","phone":"Tel : 6694 8932","chain":"LiHO","location":{"type":"Point","coordinates":[103.843488359469,1.27468281482263]}},{"title":"LiHO @ Alexandra Retail Centre","address":"Alexandra Retail Centre (ARC)\n                                             \n                                                                                        #01-10,  460 Alexandra Road, 119963","phone":"Tel : 6272 0211","chain":"LiHO","location":{"type":"Point","coordinates":[103.801399416665,1.27414893629254]}},{"title":"LiHO @ west Coast Plaza","address":"West Coast Plaza\n                                             \n                                                                                        #B1-57,  154 West Coast Road, 127371","phone":"Tel : 6776 0073","chain":"LiHO","location":{"type":"Point","coordinates":[103.76610375397,1.30358622534992]}},{"title":"LiHO @ Anchorpoint","address":"Anchorpoint Shopping Centre\n                                             \n                                                                                        #%u200EB1%u202C-47,  370 Alexandra Road, 159953","phone":"Tel : 6474 1927","chain":"LiHO","location":{"type":"Point","coordinates":[103.805009964592,1.28861469030586]}},{"title":"LiHO @ Raffles City Shopping Centre","address":"Raffles City Shopping Centre (Raffles City)\n                                             \n                                                                                        #B1-71,  252 North Bridge Road, 179103","phone":"Tel : 6336 9282","chain":"LiHO","location":{"type":"Point","coordinates":[103.852768324281,1.29376028134073]}},{"title":"LiHO @ Burlington","address":"Burlington Square\n                                             \n                                                                                         #01-53,  175 Bencoolen Street, 189649","phone":"Tel : 6884 8933","chain":"LiHO","location":{"type":"Point","coordinates":[103.85270021499,1.30224327074302]}},{"title":"LiHO @ Great World City","address":"Great World City\n                                             \n                                                                                        #B1-K1,  1 Kim Seng Promenade, 237994","phone":"Tel : 6836 6061","chain":"LiHO","location":{"type":"Point","coordinates":[103.831757911057,1.29380235105066]}},{"title":"LiHO @ Plaza Singapura","address":"Plaza Singapura\n                                             \n                                                                                        #B1-K7,  68 Orchard Road, 238839","phone":"Tel : 6238 8289","chain":"LiHO","location":{"type":"Point","coordinates":[103.845072743164,1.30083413030923]}},{"title":"LiHO @ Orchard Gateway","address":"Orchard Gateway\n                                             \n                                                                                        #B2-13,  277 Orchard Road, 238858","phone":"Tel : 6702 6892","chain":"LiHO","location":{"type":"Point","coordinates":[103.839325098352,1.30048912114759]}},{"title":"LiHO @ Wisma Atria","address":"Wisma Atria\n                                             \n                                                                                        #B1-03,  435 Orchard Road, 238877","phone":null,"chain":"LiHO","location":{"type":"Point","coordinates":[103.833200970183,1.30370452023703]}},{"title":"LiHO @ United Square","address":"United Square\n                                             \n                                                                                        #B1-40,  101 Thomson Road, 307591","phone":"Tel : 6254 0811","chain":"LiHO","location":{"type":"Point","coordinates":[103.843670754851,1.31742800767635]}},{"title":"LiHO @ Toa Payoh","address":"HDB Toa Payoh Central\n                                             \n                                                                                        #01-530,  184 Toa Payoh Central, 310184","phone":"Tel : 6324 7134","chain":"LiHO","location":{"type":"Point","coordinates":[103.849677717253,1.33259000918315]}},{"title":"LiHO @ Eunos MRT","address":"Eunos MRT Station (EW7)\n                                             \n                                                                                        #01-05,  30 Eunos Crescent, 409423","phone":"Tel : 6748 9383","chain":"LiHO","location":{"type":"Point","coordinates":[103.903645566693,1.31965992885645]}},{"title":"LiHO @ 112 Katong","address":"i12 Katong\n                                             \n                                                                                        #B1-02A,  112 East Coast Road, 428802","phone":"Tel : 6636 3948","chain":"LiHO","location":{"type":"Point","coordinates":[103.905046110228,1.30520653617341]}},{"title":"LiHO @ Eastpoint Mall","address":"Eastpoint Mall (East Point)\n                                             \n                                                                                        #01-K1,  3 Simei Street 6, 528833","phone":"Tel : 6636 0893","chain":"LiHO","location":{"type":"Point","coordinates":[103.953050756306,1.34269199750599]}},{"title":"LiHO @ Tampires Mall","address":"Tampines Mall\n                                             \n                                                                                        #B1-K5,  4 Tampines Central 5, 529510","phone":"Tel : 6783 9378","chain":"LiHO","location":{"type":"Point","coordinates":[103.944682574769,1.35250468330971]}},{"title":"LiHO @ Tampines MRT","address":"Tampines MRT Station (EW2)\n                                             \n                                                                                        #01-24,  20 Tampines Central 1, 529538","phone":"Tel : 6786 1773","chain":"LiHO","location":{"type":"Point","coordinates":[103.945042729998,1.35369188683393]}},{"title":"LiHO @ Hougang 1","address":"Hougang 1\n                                             \n                                                                                        #01-37,  1 Hougang Street 91, 538692","phone":"Tel : 6387 8995","chain":"LiHO","location":{"type":"Point","coordinates":[103.879483534695,1.37561464129476]}},{"title":"LiHO @ Rivervale Mall","address":"Rivervale Mall\n                                             \n                                                                                        #01-04A,  11 Rivervale Crescent, 545082","phone":null,"chain":"LiHO","location":{"type":"Point","coordinates":[103.904483668323,1.39250410994833]}},{"title":"LiHO @ Jubilee Square","address":"Jubilee Square\n                                             \n                                                                                        #01-14 ,  61 Ang Mo Kio Avenue 8, 569814","phone":"Tel : 6456 6476","chain":"LiHO","location":{"type":"Point","coordinates":[103.847775723803,1.37178551879642]}},{"title":"LiHO @ Thomson Plaza","address":"Thomson Plaza\n                                             \n                                                                                        #01-104,  301 Upper Thomson Road, 574408","phone":"Tel : 6457 7009","chain":"LiHO","location":{"type":"Point","coordinates":[103.830924910072,1.35479436177561]}},{"title":"LiHO @ Junction 8","address":"Junction 8 Shopping Centre\n                                             \n                                                                                        #02-18A,  9 Bishan Place, 579837","phone":"Tel : 6259 9938","chain":"LiHO","location":{"type":"Point","coordinates":[103.848515664081,1.3501820033849]}},{"title":"LiHO @ Clementi","address":"Clementi Arcade\n                                             \n                                                                                         #01-87,  41 Sunset Way, 597071","phone":"Tel : 6778 1323","chain":"LiHO","location":{"type":"Point","coordinates":[103.767260053747,1.32325040079253]}},{"title":"LiHO @ IMM","address":"IMM Building\n                                             \n                                                                                        #01-K12,  2 Jurong East Street 21, 609601","phone":"Tel : 6897 2383","chain":"LiHO","location":{"type":"Point","coordinates":[103.746877132868,1.33491758755437]}},{"title":"LiHO @ NTUC @ Jurong Point 1","address":"Jurong Point\n                                             \n                                                                                        #B1-09,  1 Jurong West Central 2, 648886","phone":null,"chain":"LiHO","location":{"type":"Point","coordinates":[103.706685012654,1.33945200436319]}},{"title":"LiHO @ West Mall","address":"West Mall\n                                             \n                                                                                        #B1-04/04A,  1 Bukit Batok Central Link, 658713","phone":"Tel : 6862 5895","chain":"LiHO","location":{"type":"Point","coordinates":[103.749171990184,1.34992152880216]}},{"title":"LiHO @ Bukit Batok","address":"Bukit Batok MRT Station (NS2)\n                                             \n                                                                                         #01-07,  10 Bukit Batok Central, 659958","phone":"Tel : 6561 5766","chain":"LiHO","location":{"type":"Point","coordinates":[103.749566478309,1.34903331201636]}},{"title":"LiHO @ Bukit Panjang Plaza","address":"Bukit Panjang Plaza (BPP)\n                                             \n                                                                                        #01-21,  1 Jelebu Road, 677743","phone":"Tel : 6763 1470","chain":"LiHO","location":{"type":"Point","coordinates":[103.764357180314,1.37992045176243]}},{"title":"LiHO @ Junction 10","address":"Junction 10\n                                             \n                                                                                        #01-26,  1 Woodlands Road, 677899","phone":"Tel : 6465 2130","chain":"LiHO","location":{"type":"Point","coordinates":[103.76041930548,1.38018163022688]}},{"title":"LiHO @ Lot One Shoppers' Mall","address":"Lot One Shoppers' Mall\n                                             \n                                                                                        #B1-K30,  21 Choa Chu Kang Avenue 4, 689812","phone":"Tel : 6464 8896","chain":"LiHO","location":{"type":"Point","coordinates":[103.745022476677,1.38493874036122]}},{"title":"LiHO @ Woodlands MRT Xchange","address":"Woodlands MRT Station (NS9/TE2)\n                                             \n                                                                                        #01-16,  30 Woodlands Avenue 2, 738343","phone":"Tel : 6367 7828","chain":"LiHO","location":{"type":"Point","coordinates":[103.785325969402,1.43681436169078]}},{"title":"LiHO @ Hougang Mall","address":"Hougang Mall\n                                             \n                                                                                        #02-24,  90 Hougang Avenue 10, 538766","phone":"Tel : 6343 4226","chain":"LiHO","location":{"type":"Point","coordinates":[103.893883460466,1.37253315637342]}},{"title":"LiHO @ The Cathay","address":"The Cathay\n                                             \n                                                                                        #01-10,  2 Handy Road, 229233","phone":"Tel : 6235 0029","chain":"LiHO","location":{"type":"Point","coordinates":[103.847789785765,1.29918373808483]}},{"title":"LiHO @ VivoCity","address":"VivoCity\n                                             \n                                                                                        #01-111,  1 Harbourfront Walk, 098585","phone":"Tel : 6376 9363","chain":"LiHO","location":{"type":"Point","coordinates":[103.822476140505,1.26434458658544]}},{"title":"LiHO @ Square 2","address":"Square 2\n                                             \n                                                                                        #01-172,  10 Sinaran Drive, 307506","phone":"Tel : 6397 6816","chain":"LiHO","location":{"type":"Point","coordinates":[103.843892122244,1.32042967079118]}},{"title":"LiHO @ The Central","address":"The Central\n                                             \n                                                                                        #B1-25,  6 Eu Tong Sen Street, 059817","phone":"Tel : 6222 2627","chain":"LiHO","location":{"type":"Point","coordinates":[103.846797382693,1.2888737988701]}},{"title":"LiHO @ Ang Mo Kio Hub","address":"Ang Mo Kio Hub\n                                             \n                                                                                        #02-66,  53 Ang Mo Kio Avenue 3, 569933","phone":"Tel : 6481 8103","chain":"LiHO","location":{"type":"Point","coordinates":[103.848693181185,1.36923561405404]}},{"title":"LiHO @ Bedok Point","address":"Sky Eden @ Bedok (U/C, TOP 2025)\n                                             \n                                                                                        #02-30,  1 Bedok Central, 469657","phone":null,"chain":"LiHO","location":{"type":"Point","coordinates":[103.932366806338,1.3249454636451]}},{"title":"LiHO @ Yew Tee Point","address":"Yew Tee Point\n                                             \n                                                                                        #01-49/50,  21 Choa Chu Kang North 6, 689578","phone":"Tel : 6763 0064","chain":"LiHO","location":{"type":"Point","coordinates":[103.746598000147,1.39708432396576]}},{"title":"LiHO @ Orchard Central","address":"Orchard Central\n                                             \n                                                                                         #B1-02,  181 Orchard Road, 238896","phone":"Tel : 6238 7368","chain":"LiHO","location":{"type":"Point","coordinates":[103.839434733899,1.30083890839245]}},{"title":"LiHO @ Bukit Merah","address":"Bukit Merah Central Food Centre\n                                             \n                                                                                        #01-3661,  163 Bukit Merah Central, 150163","phone":"Tel : 6278 8913","chain":"LiHO","location":{"type":"Point","coordinates":[103.817072717954,1.28366139597446]}},{"title":"LiHO @ Gek Poh Shopping Centre","address":"Gek Poh Shopping Centre\n                                             \n                                                                                        #01-328,  762 Jurong West Street 75, 640762","phone":"Tel : 6790 9189","chain":"LiHO","location":{"type":"Point","coordinates":[103.697739629738,1.3487416466288]}},{"title":"LiHO @ China Square Central","address":"Cross Street Exchange\n                                             \n                                                                                        #01-56,  18 Cross Street, 048423","phone":"Tel : 6438 7121","chain":"LiHO","location":{"type":"Point","coordinates":[103.846882908595,1.28355426127583]}},{"title":"LiHO @ Marina Bay Sands","address":"The Shoppes at Marina Bay Sands (MBS)\n                                             \n                                                                                        #01-72,  2 Bayfront Avenue, 018972","phone":"Tel : 6688 7431","chain":"LiHO","location":{"type":"Point","coordinates":[103.857629111139,1.28332249857386]}},{"title":"LiHO @ *SCAPE","address":"*SCAPE\n                                             \n                                                                                        #02-10,  2 Orchard Link, 237978","phone":"Tel : 6509 6282","chain":"LiHO","location":{"type":"Point","coordinates":[103.835784682851,1.30106463675593]}},{"title":"LiHO @ Greenwich V","address":"Greenwich V\n                                             \n                                                                                        #01-20,  1 Seletar Road, 807011","phone":"Tel : 6483 1487","chain":"LiHO","location":{"type":"Point","coordinates":[103.869348049282,1.38736769500018]}},{"title":"LiHO @ Changi City Point","address":"Changi City Point\n                                             \n                                                                                        #B1-41,  5 Changi Business Park Central 1, 486038","phone":"Tel : 6604 8489","chain":"LiHO","location":{"type":"Point","coordinates":[103.962946083391,1.33408359331373]}},{"title":"LiHO @ Asia Square Tower 2","address":"Asia Square Tower 2\n                                             \n                                                                                        #02-08,  12 Marina View, 018961","phone":"Tel : 6844 9928","chain":"LiHO","location":{"type":"Point","coordinates":[103.850812513482,1.27822949964567]}},{"title":"LiHO @ JEM","address":"Jurong East Mall (JEM)\n                                             \n                                                                                        #B1-30,  50 Jurong Gateway Road, 608549","phone":"Tel : 6734 8068","chain":"LiHO","location":{"type":"Point","coordinates":[103.743359442234,1.33332819303974]}},{"title":"LiHO @ The Star Vista","address":"The Star Vista\n                                             \n                                                                                        #01-40,  1 Vista Exchange Green, 138617","phone":"Tel : 6694 4033","chain":"LiHO","location":{"type":"Point","coordinates":[103.788462732266,1.30681500712523]}},{"title":"LiHO @ Zhongshan Mall Balestier","address":"Zhongshan Mall Balestier\n                                             \n                                                                                        #01-09,  20 Ah Hood Road, 329984","phone":"Tel : 6339 2825","chain":"LiHO","location":{"type":"Point","coordinates":[103.846490871841,1.32702991607724]}},{"title":"LiHO @ Bedok Mall","address":"Bedok Mall\n                                             \n                                                                                        #B2-K16,  311 New Upper Changi Road, 467360","phone":"Tel : 6702 4025","chain":"LiHO","location":{"type":"Point","coordinates":[103.929256259726,1.32473632812103]}},{"title":"LiHO @ Admiralty Place","address":"HDB Admiralty Place\n                                             \n                                                                                        #01-15,  677 Woodlands Avenue 6, 730677","phone":"Tel : 6367 1238","chain":"LiHO","location":{"type":"Point","coordinates":[103.801706470491,1.43938615380542]}},{"title":"LiHO @ Fairprice Hub","address":"Fairprice Hub\n                                             \n                                                                                        #02-31 ,  1 Joo Koon Circle, 629117","phone":null,"chain":"LiHO","location":{"type":"Point","coordinates":[103.678096359775,1.32460664929081]}},{"title":"LiHO @ One Km","address":"Kinex\n                                             \n                                                                                        #B1-K5 ,  11 Tanjong Katong Road, 437157","phone":null,"chain":"LiHO","location":{"type":"Point","coordinates":[103.894738004496,1.31461849889242]}},{"title":"LiHO @ Waterway Point","address":"Waterway Point (Shopping Centre)\n                                             \n                                                                                        #B2-K10,  83 Punggol Central, 828761","phone":null,"chain":"LiHO","location":{"type":"Point","coordinates":[103.902188891645,1.4064128346795]}},{"title":"LiHO @ Paragon","address":"Paragon Shopping Centre\n                                             \n                                                                                        #B1-39/40,  290 Orchard Road, 238859","phone":"Tel : 6235 7511","chain":"LiHO","location":{"type":"Point","coordinates":[103.83526664484,1.30371084737898]}},{"title":"LiHO @ Suntec City Mall","address":"Suntec City Mall\n                                             \n                                                                                        #03-379,  3 Temasek Boulevard, 038983","phone":"Tel : 6836 1348","chain":"LiHO","location":{"type":"Point","coordinates":[103.858552585838,1.29571152468885]}},{"title":"LiHO @ 18 Tai Seng","address":"18 Tai Seng\n                                             \n                                                                                        #B1-11,  18 Tai Seng Street, 539775","phone":null,"chain":"LiHO","location":{"type":"Point","coordinates":[103.888825620348,1.33631557522577]}},{"title":"LiHO @ Resorts World Sentosa","address":"Resorts World at Sentosa\n                                             \n                                                                                        #01-83 ,  8 Sentosa Gateway, 098269","phone":"Tel : 6683 2335","chain":"LiHO","location":{"type":"Point","coordinates":[103.82028484165,1.25498909397858]}},{"title":"LiHO @ Far East Plaza","address":"Far East Plaza\n                                             \n                                                                                        #01-16F,  14 Scotts Road, 228213","phone":"Tel : 6334 5465","chain":"LiHO","location":{"type":"Point","coordinates":[103.833818438639,1.30730468891062]}}],"KOI":[{"title":"Suntec City","address":"3 Temasek Boulevard #01-432, Suntec City Mall, Singapore 038983","phone":"Suntec City","opening_hours":"(+65) 6931-3497","chain":"KOI","location":{"type":"Point","coordinates":[103.858552585838,1.29571152468885]}},{"title":"The Centrepoint","address":"176 Orchard Rd, #B1-K2 The Centrepoint, Singapore 238843","phone":"The Centrepoint","opening_hours":"(+65) 6931-2622","chain":"KOI","location":{"type":"Point","coordinates":[103.840054426935,1.30151446722773]}},{"title":"myVillage","address":"1 Maju Avenue, #01-07, myVillage, Singapore 556679","phone":"myVillage","opening_hours":"(+65) 6993-9890","chain":"KOI","location":{"type":"Point","coordinates":[103.865101220515,1.3652806057289]}},{"title":"IMM","address":"2 Jurong East Street 21 #01-58, IMM Building, Singapore 609601","phone":"IMM","opening_hours":"(+65) 6974-0095","chain":"KOI","location":{"type":"Point","coordinates":[103.746877132868,1.33491758755437]}},{"title":"Redhill","address":"920 Tiong Bahru Rd, Redhill MRT #01-08, Singapore 158792","phone":"Redhill","opening_hours":"(+65) 6513-7628","chain":"KOI","location":{"type":"Point","coordinates":[103.817058256205,1.28933202700544]}},{"title":"Funan","address":"107 North Bridge Rd, Funan #B2-K17, Singapore 179105","phone":"Funan","opening_hours":"(+65) 6974-7520","chain":"KOI","location":{"type":"Point","coordinates":[103.849989790085,1.29134759697794]}},{"title":"Wisma Atria","address":"435 Orchard Road #B1-03, Wisma Atria, Singapore 238877","phone":"Wisma Atria","opening_hours":"(+65) 6974-7170","chain":"KOI","location":{"type":"Point","coordinates":[103.833200970183,1.30370452023703]}},{"title":"Bendemeer Shopping Mall","address":"25 Bendemeer Rd #01-583, Bendemeer Shopping Mall, Singapore 330025","phone":"Bendemeer Shopping Mall","opening_hours":"(+65) 6816-0984","chain":"KOI","location":{"type":"Point","coordinates":[103.862702893919,1.31868262266763]}},{"title":"Admiralty Place","address":"Blk 678A Woodlands Avenue 6, Admiralty Place #01-07A, Singapore 731678","phone":"Admiralty Place","opening_hours":"(+65) 6974-7405","chain":"KOI","location":{"type":"Point","coordinates":[103.801537354932,1.44036367556377]}},{"title":"One Raffles Place","address":"Shopping Podium at Tower 1 #B1-09, One Raffles Place, Singapore 048616","phone":"One Raffles Place","opening_hours":"(+65) 6931-9203","chain":"KOI","location":{"type":"Point","coordinates":[103.851072545834,1.28434954622306]}},{"title":"Paragon","address":"290 Orchard Road #B1-33, Paragon, Singapore 238859","phone":"Paragon","opening_hours":"(+65) 6920-7214","chain":"KOI","location":{"type":"Point","coordinates":[103.83526664484,1.30371084737898]}},{"title":"Khatib","address":"Blk 846 Yishun Ring Road #01-3649, Singapore 760846","phone":"Khatib","opening_hours":"(+65) 6025-5797","chain":"KOI","location":{"type":"Point","coordinates":[103.834641579241,1.41678634718118]}},{"title":"Braddell","address":"109 Lorong 1 Toa Payoh #01-302, Singapore 310109","phone":"Braddell","opening_hours":"(+65) 6974-6916","chain":"KOI","location":{"type":"Point","coordinates":[103.846202460812,1.34123727120826]}},{"title":"Parkway Parade","address":"80 Marine Parade Road #01-K32, Parkway Parade, Singapore 449269","phone":"Parkway Parade","opening_hours":"(+65) 6025-3753","chain":"KOI","location":{"type":"Point","coordinates":[103.90533928065,1.30091736056425]}},{"title":"Rivervale Mall","address":"11 Rivervale Crescent #01-04A, Rivervale Mall, Singapore 545082","phone":"Rivervale Mall","opening_hours":"(+65) 6025-4214","chain":"KOI","location":{"type":"Point","coordinates":[103.904483668323,1.39250410994833]}},{"title":"Heartland Mall","address":"205 Hougang Street 21, Heartland Mall #01-16, Singapore 530205","phone":"Heartland Mall","opening_hours":"(+65) 6025-3787","chain":"KOI","location":{"type":"Point","coordinates":[103.885167372726,1.35954177325561]}},{"title":"The Woodleigh Mall","address":"11 Bidadari Park Drive #B1-K53, The Woodleigh Mall, Singapore 367803","phone":"The Woodleigh Mall","opening_hours":"(+65) 6025-2245","chain":"KOI","location":{"type":"Point","coordinates":[103.871750105256,1.33869419209869]}},{"title":"Jewel Basement","address":"78 Airport Boulevard #B2-263, Jewel Changi Airport, Singapore 819666","phone":"Jewel Basement","opening_hours":"(+65) 8943-0857","chain":"KOI","location":{"type":"Point","coordinates":[103.989457201894,1.36023106736765]}},{"title":"Limbang Shopping Centre","address":"Blk 533 Choa Chu Kang Street 51 #01-24, Singapore 680533","phone":"Limbang Shopping Centre","opening_hours":"(+65) 6993-3656","chain":"KOI","location":{"type":"Point","coordinates":[103.743099576162,1.39207387937105]}},{"title":"Sengkang Grand Mall","address":"70 Compassvale Bow #B1-05, Singapore 544692","phone":"Sengkang Grand Mall","opening_hours":"(+65) 6816-0071","chain":"KOI","location":{"type":"Point","coordinates":[103.892418758836,1.38389417561466]}},{"title":"Outram Community Hospital","address":"10 Hospital Boulevard #01-01, Singapore 168582","phone":"Outram Community Hospital","opening_hours":"(+65) 6592-4611","chain":"KOI","location":{"type":"Point","coordinates":[103.835624220901,1.27754387747302]}},{"title":"Sengkang General Hospital","address":"1 Anchorvale Street #01-24, Singapore 544835","phone":"Sengkang General Hospital","opening_hours":"(+65) 6993-7677","chain":"KOI","location":{"type":"Point","coordinates":[103.891834051543,1.39602238832875]}},{"title":"Canberra MRT","address":"11 Canberra Link, #02-01, Singapore 756972","phone":"Canberra MRT","opening_hours":"(+65)6514-2512","chain":"KOI","location":{"type":"Point","coordinates":[103.829702590959,1.44307664075699]}},{"title":"100AM","address":"100 Tras Street #01-15A, 100 AM, Singapore 079027","phone":"100AM","opening_hours":"(+65)6993-9011","chain":"KOI","location":{"type":"Point","coordinates":[103.843488359469,1.27468281482263]}},{"title":"Oasis Terraces","address":"681 Punggol Drive #01-30, Singapore 820681","phone":"Oasis Terraces","opening_hours":"(+65) 6957-2232","chain":"KOI","location":{"type":"Point","coordinates":[103.913215101343,1.40278015725693]}},{"title":"Thomson Plaza","address":"301 Upper Thomson Road #01-18, Thomson Plaza, Singapore 574408","phone":"Thomson Plaza","opening_hours":"(+65) 6816-3630","chain":"KOI","location":{"type":"Point","coordinates":[103.830924910072,1.35479436177561]}},{"title":"Joo Koon MRT","address":"91 Joo Koon Circle #02-02, Singapore 629116","phone":"Joo Koon MRT","opening_hours":"(+65)6250-9815","chain":"KOI","location":{"type":"Point","coordinates":[103.678085068438,1.32769436492908]}},{"title":"Hillview Community Club","address":"1 Hillview Rise, #01-K1, Singapore 667970","phone":"Hillview Community Club","opening_hours":"(+65) 6993-9755","chain":"KOI","location":{"type":"Point","coordinates":[103.764296962629,1.36194319593553]}},{"title":"United Square","address":"101 Thomson Road #B1-60, Singapore 307591","phone":"United Square","opening_hours":"(+65) 6993-9754","chain":"KOI","location":{"type":"Point","coordinates":[103.843670754851,1.31742800767635]}},{"title":"Anchorpoint","address":"370 Alexandra Road #01-37, Singapore 159953","phone":"Anchorpoint","opening_hours":"+(65)6816-1700","chain":"KOI","location":{"type":"Point","coordinates":[103.805009964592,1.28861469030586]}},{"title":"National University Hospital","address":"1 Lower Kent Ridge #1-14, Singapore 119082","phone":"National University Hospital","opening_hours":"+(65)6993-6848","chain":"KOI","location":{"type":"Point","coordinates":[103.7846855811,1.2935128771923]}},{"title":"Northshore Plaza","address":"407 Northshore Drive #1-K3, K4, K5, Singapore 820407","phone":"Northshore Plaza","opening_hours":"+(65)6993-5374","chain":"KOI","location":{"type":"Point","coordinates":[103.902074379502,1.41676127156324]}},{"title":"Square 2","address":"10 Sinaran Drive #B1-115/116, Singapore 307506","phone":"Square 2","opening_hours":"+(65)6327-9095","chain":"KOI","location":{"type":"Point","coordinates":[103.843892122244,1.32042967079118]}},{"title":"Woodlands MRT (Thomson-East Coast Line)","address":"Thomson-East Coast Line #B1-26, 11 Woodlands Square, Singapore 737736","phone":"Woodlands MRT (Thomson-East Coast Line)","opening_hours":"+(65)6592-5271","chain":"KOI","location":{"type":"Point","coordinates":[103.787378796736,1.43730091101476]}},{"title":"Clementi Mall","address":"3155 Commonwealth Ave W #01-04, Singapore 129588","phone":"Clementi Mall","opening_hours":"+(65)6993-0928","chain":"KOI","location":{"type":"Point","coordinates":[103.764596439304,1.31555354277949]}},{"title":"One North MRT","address":"5 Ayer Rajah Avenue, #B2-01 Singapore 138647","phone":"One North MRT","opening_hours":"+(65) 6592-0485","chain":"KOI","location":{"type":"Point","coordinates":[103.787412789536,1.29968953488969]}},{"title":"Holland Village MRT","address":"200 Holland Avenue, #B1 – 06 Singapore 278995","phone":"Holland Village MRT","opening_hours":"+(65) 6592-4614","chain":"KOI","location":{"type":"Point","coordinates":[103.796800676243,1.31244727745015]}},{"title":"Bukit Gombak MRT","address":"802 Bukit Batok West Avenue 5, #01-15 Bukit Gombak MRT Station, Singapore 659083","phone":"Bukit Gombak MRT","opening_hours":"+(65) 6908-1522","chain":"KOI","location":{"type":"Point","coordinates":[103.751790910733,1.35861159094192]}},{"title":"Paya Lebar Quarter","address":"10 Paya Lebar Road #B1-02, Paya Lebar Quarter S(409057)","phone":"Paya Lebar Quarter","opening_hours":"(+65) 6974-3428","chain":"KOI","location":{"type":"Point","coordinates":[103.892836694432,1.31756115921]}},{"title":"Downtown East","address":"1 Pasir Ris Close #01-341, Downtown East, S(519599)","phone":"Downtown East","opening_hours":"(+65) 6459-1518","chain":"KOI","location":{"type":"Point","coordinates":[103.95514122442,1.3766980678365]}},{"title":"Great World City","address":"1 Kim Seng Promenade, #01-125 Great World City, S(237994)","phone":"Great World City","opening_hours":"(+65) 6920-2558","chain":"KOI","location":{"type":"Point","coordinates":[103.831757911057,1.29380235105066]}},{"title":"Junction 8","address":"Junction 8 Shopping Centre, 9 Bishan Place, #02-26 S(579837)","phone":"Junction 8","opening_hours":"(+65) 6258-1729","chain":"KOI","location":{"type":"Point","coordinates":[103.848515664081,1.3501820033849]}},{"title":"Plaza Singapura","address":"68 Orchard Road #B2-11 Plaza Singapura, S(238839)","phone":"Plaza Singapura","opening_hours":"(+65) 6815-1198","chain":"KOI","location":{"type":"Point","coordinates":[103.845072743164,1.30083413030923]}},{"title":"Ang Mo Kio Hub","address":"53 Ang Mo Kio Ave 3 #01-44, S(569933)","phone":"Ang Mo Kio Hub","opening_hours":"(+65) 6815-2976","chain":"KOI","location":{"type":"Point","coordinates":[103.848693181185,1.36923561405404]}},{"title":"Sun Plaza Mall","address":"30 Sembawang Drive #02-09 Sun Plaza S(757713)","phone":"Sun Plaza Mall","opening_hours":"(+65) 6957-6488","chain":"KOI","location":{"type":"Point","coordinates":[103.819530140823,1.44820036592783]}},{"title":"North Point City","address":"1 Northpoint Drive, South Wing of Northpoint City #B2-157 S(768019)","phone":"North Point City","opening_hours":"(+65) 6957-4203","chain":"KOI","location":{"type":"Point","coordinates":[103.836324536111,1.42875460572994]}},{"title":"Tiong Bahru Plaza","address":"302 Tiong Bahru Road #01-155, S(168732)","phone":"Tiong Bahru Plaza","opening_hours":"(+65) 6816-0728","chain":"KOI","location":{"type":"Point","coordinates":[103.827550771424,1.28633177192832]}},{"title":"Takashimaya","address":"391 Orchard Road #B2-37C, Takashimaya Shopping Centre, Ngee Ann City, S (238872)","phone":"Takashimaya","opening_hours":"(+65) 6815-5488","chain":"KOI","location":{"type":"Point","coordinates":[103.834980235031,1.30236932766648]}},{"title":"Raffles City","address":"252 North Bridge Road #B1-71,Singapore 179103, Raffles City Shopping Centre, S(179103)","phone":"Raffles City","opening_hours":"(+65) 6931-1040","chain":"KOI","location":{"type":"Point","coordinates":[103.852768324281,1.29376028134073]}},{"title":"HarbourFront Centre","address":"1 Maritime Square #01-67A, Harbourfront Centre S(099253)","phone":"HarbourFront Centre","opening_hours":"(+65) 6920-6729","chain":"KOI","location":{"type":"Point","coordinates":[103.82005101011,1.26401293230767]}},{"title":"Tampines Mall","address":"4 Tampines Central 5 #02-K3B, Tampines Mall S(529510)","phone":"Tampines Mall","opening_hours":"(+65) 6443-6502","chain":"KOI","location":{"type":"Point","coordinates":[103.944682574769,1.35250468330971]}},{"title":"Novena Square","address":"238 Thomson Road #01-61, Novena Square S(307683)","phone":"Novena Square","opening_hours":"(+65) 6266-1857","chain":"KOI","location":{"type":"Point","coordinates":[103.843656761867,1.32021100706836]}},{"title":"Hillion Mall","address":"17 Petir Road #B2-53, Hillion Mall S(678278)","phone":"Hillion Mall","opening_hours":"(+65) 6252-1041","chain":"KOI","location":{"type":"Point","coordinates":[103.762842789877,1.37843100800213]}},{"title":"Jurong Point","address":"1 Jurong West Central 2 #02-41C, Jurong Point S(648886)","phone":"Jurong Point","opening_hours":"(+65) 6266-0287","chain":"KOI","location":{"type":"Point","coordinates":[103.706685012654,1.33945200436319]}},{"title":"Woodlands MRT","address":"30 Woodlands Avenue 2 #01-16, Woodlands MRT S(738343)","phone":"Woodlands MRT","opening_hours":"(+65) 6362-1608","chain":"KOI","location":{"type":"Point","coordinates":[103.785325969402,1.43681436169078]}},{"title":"Eastpoint Mall","address":"3 Simei Street 6 #01-08, Eastpoint Mall S(528833)","phone":"Eastpoint Mall","opening_hours":"(+65) 6443-5874","chain":"KOI","location":{"type":"Point","coordinates":[103.953050756306,1.34269199750599]}},{"title":"Chinatown Point","address":"133 New Bridge Road #01-39, Chinatown Point S(059413)","phone":"Chinatown Point","opening_hours":"(+65) 6221-2140","chain":"KOI","location":{"type":"Point","coordinates":[103.844697081142,1.28499882847401]}},{"title":"Waterway Point","address":"83 Punggol Central #B1-K2, Waterway Point S(828761)","phone":"Waterway Point","opening_hours":"(+65) 6385-9396","chain":"KOI","location":{"type":"Point","coordinates":[103.902188891645,1.4064128346795]}},{"title":"White Sands","address":"1 Pasir Ris Central St.3 #01-32, White Sands mall S(518457)","phone":"White Sands","opening_hours":"(+65) 6384-5016","chain":"KOI","location":{"type":"Point","coordinates":[103.949733905672,1.37228761596577]}},{"title":"Tampines MRT","address":"20 Tampines Central 1, #01-14  S(529538)","phone":"Tampines MRT","opening_hours":"(+65) 6223-1045","chain":"KOI","location":{"type":"Point","coordinates":[103.945042729998,1.35369188683393]}},{"title":"Yew Tee MRT","address":"61 Choa Chu Kang Drive #01-03, Yew Tee MRT S(689715)","phone":"Yew Tee MRT","opening_hours":"(+65) 6765-7184","chain":"KOI","location":{"type":"Point","coordinates":[103.747329717481,1.39712886294116]}},{"title":"Ion Orchard","address":"2 Orchard Turn # B4-35, ION Orchard S(238801)","phone":"Ion Orchard","opening_hours":"(+65) 6509-3084","chain":"KOI","location":{"type":"Point","coordinates":[103.831510144742,1.30419142102398]}},{"title":"Seletar Mall","address":"33 Sengkang West Ave #B1-K6, Seletar Mall S(797653)","phone":"Seletar Mall","opening_hours":"(+65) 6702-4836","chain":"KOI","location":{"type":"Point","coordinates":[103.876213231014,1.39131549124709]}},{"title":"Bukit Batok MRT","address":"10 Bukit Batok Central #01-07, Bukit Batok MRT S(659958)","phone":"Bukit Batok MRT","opening_hours":"(+65) 6563-1496","chain":"KOI","location":{"type":"Point","coordinates":[103.749566478309,1.34903331201636]}},{"title":"Ang Mo Kio MRT","address":"2450 Ang Mo Kio Ave8 #01-05, Ang Mo Kio MRT S(569811)","phone":"Ang Mo Kio MRT","opening_hours":"(+65) 6459-3763","chain":"KOI","location":{"type":"Point","coordinates":[103.849558091776,1.36993284962264]}},{"title":"Hougang Mall","address":"90 Hougang Ave 10, #01-15 Singapore S(538766)","phone":"Hougang Mall","opening_hours":"(+65) 6343-4234","chain":"KOI","location":{"type":"Point","coordinates":[103.893883460466,1.37253315637342]}},{"title":"Boon Lay","address":"301 Boon Lay way #01-34, Boon Lay MRT S(649846)","phone":"Boon Lay","opening_hours":"(+65) 6795-6342","chain":"KOI","location":{"type":"Point","coordinates":[103.706064622772,1.33860405469845]}},{"title":"Paya Lebar","address":"30 Paya Lebar Rd. #01-04, Paya Lebar MRT S(409006)","phone":"Paya Lebar","opening_hours":"(+65) 6743-1200","chain":"KOI","location":{"type":"Point","coordinates":[103.893126032803,1.31810656950105]}},{"title":"Changi City Point","address":"5 Changi Business Park Central 1 #B1-18, Changi City Point S(486038)","phone":"Changi City Point","opening_hours":"(+65) 6636-0347","chain":"KOI","location":{"type":"Point","coordinates":[103.962946083391,1.33408359331373]}},{"title":"City Square Mall","address":"180 Kitchener Road #B1-K6, City Square Mall S(208539)","phone":"City Square Mall","opening_hours":"(+65) 6634-9361","chain":"KOI","location":{"type":"Point","coordinates":[103.856724057693,1.31135169933195]}},{"title":"NEX","address":"23 Serangoon Central #B1-07, NEX Mall S(556083)","phone":"NEX","opening_hours":"(+65) 6634-8623","chain":"KOI","location":{"type":"Point","coordinates":[103.872590477492,1.35064579494756]}},{"title":"Changi Airport T3","address":"65 Airport Boulevard #B2-12, Changi Airport Terminal 3 S(819663)","phone":"Changi Airport T3","opening_hours":"(+65) 6543-2080","chain":"KOI","location":{"type":"Point","coordinates":[103.985852088983,1.35556855805419]}},{"title":"313@Somerset","address":"313 Orchard Rd #B3-51, 313@Somerset S(238895)","phone":"313@Somerset","opening_hours":"(+65) 6835-9476","chain":"KOI","location":{"type":"Point","coordinates":[103.838360664485,1.30101436404056]}},{"title":"VivoCity","address":"1 Harbourfront Walk #B2-06B, VivoCity S(098585)","phone":"VivoCity","opening_hours":"(+65) 6272-4085","chain":"KOI","location":{"type":"Point","coordinates":[103.822476140505,1.26434458658544]}},{"title":"Millenia Walk","address":"9 Raffles Boulevard #01-85, Millenia Walk S(039596)","phone":"Millenia Walk","opening_hours":"(+65) 6336-9427","chain":"KOI","location":{"type":"Point","coordinates":[103.859343968909,1.29296504146626]}},{"title":"Buona Vista","address":"100 North Buona Vista Road #1-02/03, Buona Vista MRT S(139345)","phone":"Buona Vista","opening_hours":"(+65) 6779-5643","chain":"KOI","location":{"type":"Point","coordinates":[103.788696211509,1.30768350227128]}},{"title":"Yishun 10","address":"51 Yishun Central 1 #01-02, Yishun 10 Multiplex S(768794)","phone":"Yishun 10","opening_hours":"(+65) 6754-7639","chain":"KOI","location":{"type":"Point","coordinates":[103.836473396124,1.42991554202388]}},{"title":"Westgate Mall","address":"3 Gateway Drive #B1-K12, Westgate S(608532)","phone":"Westgate Mall","opening_hours":"(+65) 6569-0271","chain":"KOI","location":{"type":"Point","coordinates":[103.742766489597,1.33415752008876]}},{"title":"Compass One","address":"1 Sengkang Square #01-19, Compass One Mall S(545078)","phone":"Compass One","opening_hours":"(+65) 6881-8470","chain":"KOI","location":{"type":"Point","coordinates":[103.89507054384,1.39205314156706]}},{"title":"Bedok Mall","address":"311 New Upper Changi Road #01-97, Bedok Mall S(467360)","phone":"Bedok Mall","opening_hours":"(+65) 6246-1780","chain":"KOI","location":{"type":"Point","coordinates":[103.929256259726,1.32473632812103]}},{"title":"Tampines","address":"BLK 510 Tampines Center 1 #01-250 S(520510)","phone":"Tampines","opening_hours":"(+65) 6789-9106","chain":"KOI","location":{"type":"Point","coordinates":[103.944458085324,1.35480107982353]}},{"title":"Bugis+","address":"201 Victoria Street #01-01 Bugis+ S(188067)","phone":"Bugis+","opening_hours":"(+65) 6884-6817","chain":"KOI","location":{"type":"Point","coordinates":[103.853518084567,1.29966016502847]}},{"title":"Toa Payoh","address":"BLK 490 Lorong 6 Toa Payoh #01-23 S(310490)","phone":"Toa Payoh","opening_hours":"(+65) 6256-1169","chain":"KOI","location":{"type":"Point","coordinates":[103.848267915547,1.3325746127759]}}],"Ya Kun":[{"title":"Canberra Plaza","address":"Canberra Plaza 133 Canberra View #01-25 Singapore 750133","openingHours":"Mon - Sun: 7.30am - 9.30pm (Last Order is half an hour before closing time)","phone":"+65 6929 9442","location":{"type":"Point","coordinates":[103.830345369213,1.44349544527985]},"chain":"Ya Kun"},{"title":"Causeway Point","address":"Causeway Point 1 Woodlands Square #B1-23 Singapore 738099","openingHours":"Mon - Sun: 7.30am - 9.00pm (Last Order is half an hour before closing time)","phone":"+65 6891 1335","location":{"type":"Point","coordinates":[103.78568873405,1.43600784474269]},"chain":"Ya Kun"},{"title":"HDB Hub","address":"HDB Hub 490 Lorong 6 Toa Payoh #01-16 Singapore 310490","openingHours":"Daily 7.30am - 9.30pm (LO half hour prior)","phone":"+65 6358 1134","location":{"type":"Point","coordinates":[103.848267915547,1.3325746127759]},"chain":"Ya Kun"},{"title":"Jubilee Square","address":"Jubilee Square 61 Ang Mo Kio Ave 8 #01-13/16 Singapore 569814","openingHours":"Mon - Fri & PH eve: 7.30am - 5.30pm Sat - Sun & PH: 7.30am - 6.30pm (Last Order is half an hour before closing time)","phone":"+65 6802 6455","location":{"type":"Point","coordinates":[103.847775723803,1.37178551879642]},"chain":"Ya Kun"},{"title":"Junction 8 Shopping Centre","address":"Junction 8 Shopping Centre 9 Bishan Place #B1-26 Singapore 579837","openingHours":"Mon - Sun: 7.30am - 9.00pm (Last Order is half an hour before closing time)","phone":"+65 6970 1430","location":{"type":"Point","coordinates":[103.848515664081,1.3501820033849]},"chain":"Ya Kun"},{"title":"Kampung Admiralty","address":"Kampung Admiralty 676 Woodlands Drive 71 #01-18 Singapore 730676","openingHours":"Mon - Sun: 7.00am - 8.00pm (Last Order is half an hour before closing time)","phone":"+65 6264 8554","location":{"type":"Point","coordinates":[103.800726772886,1.43986217628881]},"chain":"Ya Kun"},{"title":"Northpoint City","address":"Northpoint Shopping Centre  930 Yishun Ave 2 #B1-22/23/24 Singapore 769098","openingHours":"Mon - Sun: 7.30am - 9.00pm (Last Order is half an hour before closing time)","phone":"+65 6481 0817","location":{"type":"Point","coordinates":[103.836107231373,1.42924414326245]},"chain":"Ya Kun"},{"title":"SAFRA Toa Payoh","address":"SAFRA Toa Payoh 293 Lor 6 Toa Payoh #01-01 Singapore 319387","openingHours":"Mon - Sun: 7.30am - 7.00pm (Last Order is half an hour before closing time)","phone":"+65 6261 5426","location":{"type":"Point","coordinates":[103.854404351883,1.32980734095166]},"chain":"Ya Kun"},{"title":"Sembawang Shopping Centre","address":"Sembawang Shopping Centre 604 Sembawang Rd #01-20 ​Singapore 758459","phone":"Operating Hours:","location":{"type":"Point","coordinates":[103.824970378482,1.44185307934021]},"chain":"Ya Kun"},{"title":"Sun Plaza","address":"Sun Plaza 30 Sembawang Drive #B1-42/45 Singapore 757713","openingHours":"Mon - Sun: 7.30am - 8.30pm (Last Order is half an hour before closing time)","phone":"+65 6996 6063","location":{"type":"Point","coordinates":[103.819530140823,1.44820036592783]},"chain":"Ya Kun"},{"title":"Thomson Plaza","address":"Thomson Plaza 301 Upper Thomson Road #01-95 Singapore 574408","openingHours":"Mon - Sun: 8.00am - 8.00pm (Last Order is half an hour before closing time)","phone":"+65 6513 8361","location":{"type":"Point","coordinates":[103.830924910072,1.35479436177561]},"chain":"Ya Kun"},{"title":"Anchorvale Village","address":"Anchorvale Village 339A Anchorvale Road #B1-04  ​Singapore 541339","phone":"Operating Hours:","location":{"type":"Point","coordinates":[103.888163267028,1.39654467711695]},"chain":"Ya Kun"},{"title":"City Square Mall","address":"City Square Mall 180 Kitchener Road #B2-K12/23 Singapore 208539","openingHours":"Mon - Sun: 7.30am - 10.00pm (Last Order is half an hour before closing time)","phone":"+65 6509 4031","location":{"type":"Point","coordinates":[103.856724057693,1.31135169933195]},"chain":"Ya Kun"},{"title":"Compass One","address":"Compass One 1 Sengkang Square #01-37 Singapore 545078","openingHours":"Mon - Sun: 7.00am - 9.00pm (Last Order is half an hour before closing time)","phone":"+65 6386 4165","location":{"type":"Point","coordinates":[103.89507054384,1.39205314156706]},"chain":"Ya Kun"},{"title":"Heartland Mall","address":"Heartland Mall 205 Hougang Street #02-32/33  Singapore 530205","openingHours":"Mon - Sun: 7.30am - 9.00pm (Last Order is half an hour before closing time)","phone":"+65 6917 0043","location":{"type":"Point","coordinates":[103.885167372726,1.35954177325561]},"chain":"Ya Kun"},{"title":"Nex Mall","address":"NEX 23 Serangoon Central #B2-46 Singapore 556083","openingHours":"Mon - Sun: 7.30am - 8.30pm (Last Order is half an hour before closing time)","phone":"+65 6612 3048","location":{"type":"Point","coordinates":[103.872590477492,1.35064579494756]},"chain":"Ya Kun"},{"title":"Oasis Terraces","address":"Oasis Terraces 681 Punggol Drive #B1-10/11/12 Singapore 820681","openingHours":"Mon - Sun: 7.30am - 10.00pm (Last Order is half an hour before closing time)","phone":"+65 6513 4381","location":{"type":"Point","coordinates":[103.913215101343,1.40278015725693]},"chain":"Ya Kun"},{"title":"The Seletar Mall","address":"The Seletar Mall 33 Sengkang West Avenue #B1-20/21 Singapore 797653","openingHours":"Mon - Sun: 7.30am to 10.30pm (Last Order is half an hour prior to closing)","phone":"+65 6983 2253","location":{"type":"Point","coordinates":[103.876213231014,1.39131549124709]},"chain":"Ya Kun"},{"title":"The Woodleigh Mall","address":"The Woodleigh Mall 11 Bidadari Park Drive #B1-07 ​Singapore 367803","openingHours":"Mon - Sun: 8.00am - 9.00pm (Last Order is half an hour before closing time)","phone":"+65 6610 6008","location":{"type":"Point","coordinates":[103.871750105256,1.33869419209869]},"chain":"Ya Kun"},{"title":"Waterway Point","address":"Waterway Point 83 Punggol Central #B2-K12 Singapore 828761","openingHours":"Mon - Sun: 7.30am - 9.45pm (Last Order is half an hour before closing time)","phone":"+65 6635 8795","location":{"type":"Point","coordinates":[103.902188891645,1.4064128346795]},"chain":"Ya Kun"},{"title":"Aperia Mall","address":"Aperia Mall 12 Kallang Ave #01-33 Singapore 339511","openingHours":"Mon - Fri: 7.30am - 6.00pm Sat & Sun: 7.30am - 5.00pm (Last Order is half an hour before closing time)","phone":"+65 6968 1245","location":{"type":"Point","coordinates":[103.864326436447,1.3097112065077]},"chain":"Ya Kun"},{"title":"Bedok Mall","address":"Bedok Mall 311 New Upper Changi Road #B2-K17 to K19 Singapore 467360","openingHours":"Mon - Sun: 7.30am - 9.00pm (Last Order is half an hour before closing time)","phone":"+65 6322 7512","location":{"type":"Point","coordinates":[103.929256259726,1.32473632812103]},"chain":"Ya Kun"},{"title":"Century Square","address":"Century Square 2 Tampines Central 5 #B1-21 Singapore 529509","openingHours":"Mon - Sun: 7.30am - 9.00pm (Last Order is half an hour before closing time)","phone":"+65 6781 1475","location":{"type":"Point","coordinates":[103.943812302253,1.35236829566862]},"chain":"Ya Kun"},{"title":"Changi City Point","address":"Changi City Point 5 Changi Business Park Central 1 #B1-K1  Singapore 486038","openingHours":"Mon - Fri & PH: 7.30am - 5.30pm Sat - Sun: 7.30am - 7.30pm (Last Order is half an hour before closing time)","phone":"+65 6909 8274","location":{"type":"Point","coordinates":[103.962946083391,1.33408359331373]},"chain":"Ya Kun"},{"title":"E!Hub @ Downtown East","address":"E!hub@Downtown East 1 Pasir Ris Close #02-107/108 Singapore 519599","openingHours":"Mon - Sun: 8.30am - 9.00pm (Last Order is half an hour before closing time)","phone":"+65 6583 9620","location":{"type":"Point","coordinates":[103.95514122442,1.3766980678365]},"chain":"Ya Kun"},{"title":"Eastpoint Mall","address":"Eastpoint Mall 3 Simei Street 6 #02-K8 Singapore 528833","openingHours":"Mon - Sun: 8.00am - 9.00pm (Last Order is half an hour before closing time)","phone":"+65 6802 5236","location":{"type":"Point","coordinates":[103.953050756306,1.34269199750599]},"chain":"Ya Kun"},{"title":"Jewel Changi Airport","address":"Jewel Changi Airport 78, Airport Boulevard, #01-K206 & K207 ​Singapore 819666","location":{"type":"Point","coordinates":[103.989457201894,1.36023106736765]},"chain":"Ya Kun"},{"title":"Parkway Parade","address":"Parkway Parade  80 Marine Parade Road #01-14B Singapore 449269","openingHours":"Mon - Sun: 7.30am - 8.00pm (Last Order is half an hour before closing time)","phone":"+65 6970 9237","location":{"type":"Point","coordinates":[103.90533928065,1.30091736056425]},"chain":"Ya Kun"},{"title":"Paya Lebar Square","address":"Paya Lebar Square 60 Paya Lebar #01-87 Singapore 409051","openingHours":"Mon - Sun: 7.30am - 8.00pm (Last Order is half an hour before closing time)","phone":"+65 6384 0623","location":{"type":"Point","coordinates":[103.892580778242,1.31881486980278]},"chain":"Ya Kun"},{"title":"Plaza 8","address":"1 Changi Business Park Cres Changi Business Park #01-08 ​Singapore 486025","openingHours":"Mon - Fri: 7.00am - 7.00pm Sat, Sun & PH: Closed (Last Order is half an hour before closing time)","phone":"+65 6966 0390","location":{"type":"Point","coordinates":[103.965411905521,1.33360158623326]},"chain":"Ya Kun"},{"title":"Singapore Changi Airport T1","address":"Changi Airport Terminal 1 Departure / Transit Lounge East 80 Airport Boulevard #02-K19 Singapore 819642","location":{"type":"Point","coordinates":[103.99060554697,1.36129123176598]},"chain":"Ya Kun"},{"title":"Singapore Changi Airport T2 (Transit)","address":"Singapore Changi Airport Terminal 2 (Transit) 60 Airport Boulevard #02-803 Singapore 819643  Casino Intense Assistance Clientèle  Casino Intensive fournit aux joueurs français un support multifonctionnel. L'opérateur du site web posera quotidiennement des questions aux clients en contactant leur ligne d'assistance par courriel ou par téléphone. casino intense login Le chat en direct est idéal pour poser des questions urgentes et les questions plus complexes nécessitent des conseils plus complets par e-mail. Les opérateurs de Casino Intense répondent en détail aux questions. Le service aide les clients à résoudre tout problème lié aux transactions dans le secteur bancaire.","phone":"Mon – Sun: 6.00am – 9.00pm (Last Order is half an hour before closing time)","location":{"type":"Point","coordinates":[103.989149655627,1.35524709646352]},"chain":"Ya Kun"},{"title":"Singapore Changi Airport T3","address":"Changi Airport Terminal 3 Basement 2 South 65 Airport Boulevard T3 #B2-LF3 Singapore 819663","openingHours":"Temporary Closed","phone":"+65 6241 4341","location":{"type":"Point","coordinates":[103.985852088983,1.35556855805419]},"chain":"Ya Kun"},{"title":"White Sands Shopping Centre","address":"White Sands Shopping Centre 1 Pasir Ris Central St 3 #B1-22/23 Singapore 518457","openingHours":"Mon - Sun: 8.00am - 9.00pm (Last Order is half an hour before closing time)","phone":"+65 6908 0860","location":{"type":"Point","coordinates":[103.949733905672,1.37228761596577]},"chain":"Ya Kun"},{"title":"Harbourfront Centre","address":"Harbourfront Centre 1 Maritime Square #03-59 Singapore 099253","openingHours":"Mon - Sun: 8.00am - 8.00pm (Last Order is half an hour before closing time)","phone":"+65 6276 7691","location":{"type":"Point","coordinates":[103.82005101011,1.26401293230767]},"chain":"Ya Kun"},{"title":"VivoCity","address":"VivoCity 1 Harbourfront Walk #B2-26 Singapore 098585","openingHours":"Mon - Sun: 8.00am - 9.00pm (Last Order is half an hour before closing time)","phone":"+65 6225 5789","location":{"type":"Point","coordinates":[103.822476140505,1.26434458658544]},"chain":"Ya Kun"},{"title":"Bukit Panjang Plaza","address":"Bukit Panjang Plaza 1 Jelebu Road #02-01A   ​Singapore 677743","phone":"Operating Hours:","location":{"type":"Point","coordinates":[103.764357180314,1.37992045176243]},"chain":"Ya Kun"},{"title":"Fusionopolis","address":"Fusionopolis 1 Fusionopolis Way #B1-15 Singapore 138632","openingHours":"Mon - Sun: 7.30am - 7.00pm (Last Order is half an hour before closing time)","phone":"+65 6463 0527","location":{"type":"Point","coordinates":[103.787640882653,1.2995985718601]},"chain":"Ya Kun"},{"title":"Hillion Mall","address":"Hillion Mall 17 Petir Road #B2-23/24 Singpore 678278","openingHours":"Mon - Sun: 7.30am - 10.00pm (Last Order is half an hour before closing time)","phone":"+65 6265 9144","location":{"type":"Point","coordinates":[103.762842789877,1.37843100800213]},"chain":"Ya Kun"},{"title":"IMM","address":"IMM 2 Jurong East Street 21 #01-50 Singapore 609601","openingHours":"Temporarily closed","phone":"+65 6569 0977","location":{"type":"Point","coordinates":[103.746877132868,1.33491758755437]},"chain":"Ya Kun"},{"title":"Jem","address":"Jem 50 Jurong Gateway Road #B1-39 Singapore 608549","openingHours":"Mon - Sun: 7.30am - 9.00pm (Last Order is half an hour before closing time)","phone":"+65 6694 2024","location":{"type":"Point","coordinates":[103.743359442234,1.33332819303974]},"chain":"Ya Kun"},{"title":"Jurong Point Shopping Mall","address":"Jurong Point Shopping Mall 1 Jurong West Central #02-K1/K2 Singapore 648886","openingHours":"Mon - Sun: 7.30am - 9.00pm (Last Order is half an hour before closing time)","phone":"+65 6792 8146","location":{"type":"Point","coordinates":[103.706685012654,1.33945200436319]},"chain":"Ya Kun"},{"title":"Lot One","address":"Lot One 21 Choa Chu Kang Avenue 4 #B1-K4/K5 Singapore 689812","openingHours":"Mon - Sun: 7.30am - 10.00pm (Last Order is half an hour before closing time)","phone":"+65 6877 0828","location":{"type":"Point","coordinates":[103.745022476677,1.38493874036122]},"chain":"Ya Kun"},{"title":"Ng Teng Fong General Hospital","address":"Ng Teng Fong Hospital 1 Jurong East Street 21 Tower A #02-12 Singapore 609606","openingHours":"Mon - Sun: 7.30am - 7.00pm (Last Order is half an hour before closing time)","phone":"+65 6255 1031","location":{"type":"Point","coordinates":[103.743865452312,1.33553382554428]},"chain":"Ya Kun"},{"title":"SHELL - Jalan Ahmad Ibrahim","address":"Shell Station 311 Jalan Ahmad Ibrahim Singapore 619595","openingHours":"Mon - Fri: 7.00am - 6.30pm Sat, Sun & PH: 7.00am - 4.00pm (Last Order is half an hour before closing time)","phone":"+65 6258 4094","location":{"type":"Point","coordinates":[103.721846046458,1.32355317485146]},"chain":"Ya Kun"},{"title":"The Clementi Mall","address":"The Clementi Mall 3155 Commonwealth Ave West #B1-23 Singapore 129588","openingHours":"Mon - Sun: 7.00am - 10.00pm (Last Order is half an hour before closing time)","phone":"+65 6612 1395","location":{"type":"Point","coordinates":[103.764596439304,1.31555354277949]},"chain":"Ya Kun"},{"title":"The Metropolis","address":"The Metropolis 9 North Buona Vista Drive #01-02 Singapore 138588","openingHours":"Mon - Fri: 7.15am - 5.45pm Sat, Sun & PH: Closed (Last Order is half an hour before closing time)","phone":"+65 6513 1719","location":{"type":"Point","coordinates":[103.791237458059,1.30624556811811]},"chain":"Ya Kun"},{"title":"West Mall","address":"West Mall 1 Bukit Batok Central Link #01-10/41 Singapore 658713","openingHours":"Mon - Thu: 7.30am - 9.00pm Fri - Sun: 7.30am - 9.30pm (Last Order is half an hour before closing time)","phone":"+65 8243 6787","location":{"type":"Point","coordinates":[103.749171990184,1.34992152880216]},"chain":"Ya Kun"},{"title":"Westgate","address":"Westgate 3 Gateway Drive, #B1-K1 to K4 ​Singapore 608532","phone":"Operating Hours:","location":{"type":"Point","coordinates":[103.742766489597,1.33415752008876]},"chain":"Ya Kun"},{"title":"Yew Tee Point","address":"Yew Tee Point 21 Choa Chu Kang North 6 #01-46/47/48 Singapore 689578","openingHours":"Mon - Sun: 7.30am - 10.00pm (Last Order is half an hour before closing time)","phone":"+65 6834 4686","location":{"type":"Point","coordinates":[103.746598000147,1.39708432396576]},"chain":"Ya Kun"},{"title":"100AM","address":"100AM 100 Tras Street #02-16 Singapore 079027","openingHours":"Mon - Fri: 7.30am - 6.30pm Sat, Sun & PH: 7.30am - 7.30pm (Last Order is half an hour before closing time)","phone":"+65 6968 1471‬","location":{"type":"Point","coordinates":[103.843488359469,1.27468281482263]},"chain":"Ya Kun"},{"title":"ARTRA Condominium (Redhill)","address":"ARTRA Condominium 12 Alexandra View #01-08 Singapore 158745","openingHours":"Mon - Sun: 8.00am - 8.00pm (Last Order is half an hour before closing time)","phone":"+65 6908 0381","location":{"type":"Point","coordinates":[103.817185273903,1.29003067053998]},"chain":"Ya Kun"},{"title":"Beach Road","address":"345 Beach Road Singapore 199568","openingHours":"Mon - Sun: 7.30am - 5.00pm (Last Order is half an hour before closing time)","phone":"+65 6299 3345","location":{"type":"Point","coordinates":[103.861602044301,1.30156260221458]},"chain":"Ya Kun"},{"title":"Bugis Junction","address":"Bugis Junction 200 Victoria Street #B1-11 Singapore 188021","openingHours":"Mon - Sun: 7.30am - 10.00pm (Last Order is half an hour before closing time)","phone":"+65 6238 8904","location":{"type":"Point","coordinates":[103.855411173758,1.29911287475873]},"chain":"Ya Kun"},{"title":"Bukit Timah Plaza","address":"1 Jalan Anak Bukit Bukit Timah Plaza, #B1-52B ​Singapore 588996","openingHours":"Sun - Thurs: 7.30am - 7.30pm Friday - Sat 7.30am - 8.00pm (Last Order is half an hour before closing time)","phone":"+65 6996 3982","location":{"type":"Point","coordinates":[103.778600077834,1.33875930729064]},"chain":"Ya Kun"},{"title":"Chinatown Point","address":"Chinatown Point 133 New Bridge Road #B2-14/15/16  ​Singapore 059413","phone":"Operating Hours:","location":{"type":"Point","coordinates":[103.844697081142,1.28499882847401]},"chain":"Ya Kun"},{"title":"Clarke Quay Central","address":"Clarke Quay Central 6 Eu Tong Sen Street #01-31 Singapore 059817","openingHours":"Mon - Thurs: 7.00am - 9.00pm Friday - Sat & PH eve 7.00am - 10.00pm (Last Order is half an hour before closing time)","phone":"+65 6534 7332","location":{"type":"Point","coordinates":[103.846797382693,1.2888737988701]},"chain":"Ya Kun"},{"title":"Far East Plaza","address":"Far East Plaza 14 Scotts Road #01-16  Singapore 228213","openingHours":"Mon - Sun: 8.00am - 6.00pm (Last Order is half an hour before closing time)","phone":"+65 6341 9554","location":{"type":"Point","coordinates":[103.833818438639,1.30730468891062]},"chain":"Ya Kun"},{"title":"Far East Square","address":"Far East Square 18 China Street #01-01 Singapore 049560","openingHours":"Mon - Fri: 7.30am - 4.00pm Sat & Sun: 7.30am - 3.00pm Closed on PH (Last Order is half an hour before closing time)","phone":"+65 6438 3638","location":{"type":"Point","coordinates":[103.847874757723,1.28347631059091]},"chain":"Ya Kun"},{"title":"Fortune Centre","address":"Fortune Centre 190 Middle Road #01-09 Singapore 188979","openingHours":"Mon - Sun: 7.30am - 7.00pm (Last Order is half an hour before closing time)","phone":"+65 6337 0486","location":{"type":"Point","coordinates":[103.852286627386,1.30042241913975]},"chain":"Ya Kun"},