{"ChiCha":[{"title":"CHICHA SAN CHEN COMPASS ONE","address":"1 Sengkang Square, Compass One, #B1-10 Singapore 528833","openingHours":"11.00am - 9.30pm","phone":"","chain":"ChiCha","location":{"type":"Point","coordinates":[103.953024618234,1.34270592355576]}},{"title":"CHICHA SAN CHEN NORTHPOINT CITY","address":"930 Yishun Ave 2, #B2-01, North Wing, Northpoint City, Singapore 768019","openingHours":"11.00am - 9.30pm","phone":"","chain":"ChiCha","location":{"type":"Point","coordinates":[103.836324536111,1.42875460572994]}},{"title":"CHICHA SAN CHEN NEX","address":"23 Serangoon Central, #02-13A, NEX, Singapore 556083","openingHours":"Sun - Thu 11.00am - 9:15pm; Fri - Sat 11:00am - 9:30pm","phone":"","chain":"ChiCha","location":{"type":"Point","coordinates":[103.871861623874,1.35067551435975]}},{"title":"CHICHA SAN CHEN SUN PLAZA","address":"30 Sembawang Dr, #01-06 Sun Plaza, Singapore 757713","openingHours":"11.00am - 9.30pm","phone":"","chain":"ChiCha","location":{"type":"Point","coordinates":[103.819498634275,1.44819666623789]}},{"title":"CHICHA SAN CHEN WATERWAY POINT","address":"83 Punggol Central, #01-42 Waterway Point, Singapore 828761","openingHours":"11.00am - 9.30pm","phone":"","chain":"ChiCha","location":{"type":"Point","coordinates":[103.902130352627,1.40640964880099]}},{"title":"CHICHA SAN CHEN WOODLANDS MRT","address":"Woodlands Drive 50, Avenue 2,#01-33 Singapore 738343","openingHours":"11.00am - 9.30pm","phone":"","chain":"ChiCha","location":{"type":"Point","coordinates":[103.785325969402,1.43681436169078]}},{"title":"CHICHA SAN CHEN WOODLEIGH MALL","address":"11 Bidadari Park Drive, #01-32 The Woodleigh Mall, Singapore 367803","openingHours":"Sun","phone":"","chain":"ChiCha","location":{"type":"Point","coordinates":[103.871750105256,1.33869419209869]}},{"title":"CHICHA SAN CHEN 313@SOMERSET","address":"313 Orchard Road, #03-41, 313@somerset, Singapore 238895","openingHours":"11.00am - 9.30pm","phone":"","chain":"ChiCha","location":{"type":"Point","coordinates":[103.838360664485,1.30101436404056]}},{"title":"CHICHA SAN CHEN ANG MO KIO HUB","address":"53 Ang Mo Kio Ave 3, #B1-65A/65B, Singapore 569933","openingHours":"11.00am - 9.30pm","phone":"","chain":"ChiCha","location":{"type":"Point","coordinates":[103.848693181185,1.36923561405404]}},{"title":"CHICHA SAN CHEN CHINATOWN POINT","address":"133 New Bridge Road, #B1-50B, Singapore 059413","openingHours":"11.00am - 9.15pm","phone":"","chain":"ChiCha","location":{"type":"Point","coordinates":[103.844697081142,1.28499882847401]}},{"title":"CHICHA SAN CHEN CIMB PLAZA","address":"30 Raffles Place , #B1-20/21 CIMB Plaza, Singapore 048622","openingHours":"Mon - Tue 10.30am - 5.00pm; Wed - Fri","phone":"","chain":"ChiCha","location":{"type":"Point","coordinates":[103.851954013719,1.28419337002984]}},{"title":"CHICHA SAN CHEN KALLANG WAVE MALL","address":"1 Stadium Place, #01-52, Sports Hub Retail Mall Singapore 397628","openingHours":"11.00am - 9.00pm","phone":"","chain":"ChiCha","location":{"type":"Point","coordinates":[103.873149707591,1.30307515150401]}},{"title":"CHICHA SAN CHEN MARINA SQUARE","address":"6 Raffles Boulevard, #02-208, Singapore 039594","openingHours":"Sun -","phone":"","chain":"ChiCha","location":{"type":"Point","coordinates":[103.85857808906,1.29185533273026]}},{"title":"CHICHA SAN CHEN PLAZA SINGAPURA","address":"68 Orchard Road, #B1-K7, Singapore 238839","openingHours":"Sun","phone":"","chain":"ChiCha","location":{"type":"Point","coordinates":[103.845067272666,1.30082071769235]}},{"title":"CHICHA SAN CHEN SUNTEC CITY","address":"No. 3, Temasek Boulevard, #B1-169 Fountain Court, Suntec City Mall, Singapore 038983","openingHours":"11.00am - 9.30pm","phone":"","chain":"ChiCha","location":{"type":"Point","coordinates":[103.860333693777,1.29485990186642]}},{"title":"CHICHA SAN CHEN TAKASHIMAYA S.C., NGEE ANN CITY","address":"391 Orchard Road , #B2-03 Takashimaya S.C., Ngee Ann City, Singapore 238872","openingHours":"Sun","phone":"","chain":"ChiCha","location":{"type":"Point","coordinates":[103.835181912297,1.30224168528687]}},{"title":"CHICHA SAN CHEN VELOCITY@NOVENA SQUARE","address":"238 Thomson Road, #01-07, Novena Square, Singapore 307685","openingHours":"10.30am - 9.00pm","phone":"","chain":"ChiCha","location":{"type":"Point","coordinates":[103.844120677616,1.3193876785315]}},{"title":"CHICHA SAN CHEN WHEELOCK PLACE","address":"501 Orchard Road, #B1-05,Singapore 238880","openingHours":"Sun","phone":"","chain":"ChiCha","location":{"type":"Point","coordinates":[103.830642027577,1.30467628730252]}},{"title":"CHICHA SAN CHEN BEDOK MALL","address":"311 New Upper Changi Road, Bedok Mall, #B2-24A, Singapore 467360","openingHours":"11.00am - 9.30pm","phone":"","chain":"ChiCha","location":{"type":"Point","coordinates":[103.929256259726,1.32473632812103]}},{"title":"CHICHA SAN CHEN JEWEL CHANGI AIRPORT","address":"78 Airport Boulevard,#B2-213 Jewel Changi Airport, Singapore 819666","openingHours":"11.00am - 9.30pm","phone":"","chain":"ChiCha","location":{"type":"Point","coordinates":[103.98907755021,1.3603410066102]}},{"title":"CHICHA SAN CHEN PAYA LEBAR QUARTER","address":"10 Paya Lebar Road, #02-27, Singapore 409057","openingHours":"11.00am - 9.30pm","phone":"","chain":"ChiCha","location":{"type":"Point","coordinates":[103.893414663597,1.31770886898996]}},{"title":"CHICHA SAN CHEN WHITE SANDS","address":"1 Pasir Ris Central 3, #01-39B, Singapore 518457","openingHours":"Sun","phone":"","chain":"ChiCha","location":{"type":"Point","coordinates":[103.949763493981,1.3724564071358]}},{"title":"CHICHA SAN CHEN TAMPINES 1","address":"10 Tampines Central 1, #B1-32, Singapore 529536","openingHours":"11.00am - 9.30pm","phone":"","chain":"ChiCha","location":{"type":"Point","coordinates":[103.945071748027,1.35425637962115]}},{"title":"CHICHA SAN CHEN HILLION MALL","address":"17 Petir Road, Hillion Mall,#B2-17 Singapore 678278","openingHours":"11.00am - 9.30pm","phone":"","chain":"ChiCha","location":{"type":"Point","coordinates":[103.762842789877,1.37843100800213]}},{"title":"CHICHA SAN CHEN JEM","address":"50 Jurong Gateway Road, #01-17, JEM, Singapore 608549","openingHours":"11:00am - 9.30pm","phone":"","chain":"ChiCha","location":{"type":"Point","coordinates":[103.743359442234,1.33332819303974]}},{"title":"CHICHA SAN CHEN JURONG POINT","address":"63 Jurong West Central 3,#03-32/33 Jurong Point, Singapore 648831","openingHours":"11.00am - 9.30pm","phone":"","chain":"ChiCha","location":{"type":"Point","coordinates":[103.699821137457,1.35110661918467]}},{"title":"CHICHA SAN CHEN NTU","address":"Fine Food @ South Spine Foodcourt, 50 Nanyang Avenue, Singapore 639798","openingHours":"Mon - Fri 11.00am - 7.30pm; Sat 11.00am - 1.30pm; Closed on Sun / PH","phone":"","chain":"ChiCha","location":{"type":"Point","coordinates":[103.682773793248,1.34382260860561]}},{"title":"CHICHA SAN CHEN LOT ONE","address":"21 Choa Chu Kang Ave 4, #01-05, Lot One Shoppers' Mall, Singapore 689812","openingHours":"11.00am - 9.30pm","phone":"","chain":"ChiCha","location":{"type":"Point","coordinates":[103.745022476677,1.38493874036122]}},{"title":"CHICHA SAN CHEN STAR VISTA","address":"1 Vista Exchange Green,#02-28B The Star Vista, Singapore 138617","openingHours":"Sun - Thu 11.00am - 9.00pm; Fri - Sat 11.00am - 9.30pm","phone":"","chain":"ChiCha","location":{"type":"Point","coordinates":[103.788287276561,1.30695082420353]}},{"title":"CHICHA SAN CHEN NUS","address":"1 Create Way, University Town - NUS, #01-04, Singapore 138608","openingHours":"11am - 7.30pm","phone":"","chain":"ChiCha","location":{"type":"Point","coordinates":[103.773230602745,1.30547903926184]}}],"Kopifellas":[{"title":"KOPIFELLAS @ Toa Payoh","address":"190 Lorong 6 Toa Payoh, #01-574, Singapore 310190","openingHours":"Operating hours: 0700 – 1630 | Daily","phone":"","chain":"Kopifellas","location":{"type":"Point","coordinates":[103.848832062985,1.33297850244995]}},{"title":"KOPIFELLAS @ Marina South","address":"5 Straits View, #B2-23, The Heart Marina One, Singapore 018935","openingHours":"Operating hours: 0730 – 1700 | Weekdays (Closed on Public Holidays)","phone":"","chain":"Kopifellas","location":{"type":"Point","coordinates":[103.852844801266,1.27737235072298]}},{"title":"KOPIFELLAS @ Raffles Place","address":"30 Raffles Place #B1-22, CIMB Plaza, Singapore 048622","openingHours":"Operating hours: 0700 – 1630 | Weekdays (Closed on Public Holidays)","phone":"","chain":"Kopifellas","location":{"type":"Point","coordinates":[103.851954013719,1.28419337002984]}},{"title":"KOPIFELLAS @ Tanjong Pagar","address":"10 Anson Rd, #01-11, International Plaza, Singapore 079903","openingHours":"Operating hours: 0730 – 1730 | Daily  (Closed on Saturday & Public Holidays)","phone":"","chain":"Kopifellas","location":{"type":"Point","coordinates":[103.845703218601,1.27573568143134]}},{"title":"KOPIFELLAS Cafe @ Bugis","address":"20 Tan Quee Lan Street, #01-09, Guoco Midtown 2, Singapore 188107","openingHours":"(COMING SOON!)","phone":"","chain":"Kopifellas","location":{"type":"Point","coordinates":[103.856983503203,1.29879338614448]}},{"title":"KOPIFELLAS Express @ Aljunied","address":"440 Geylang Rd, Fellascube, Singapore 389400","openingHours":"Operating hours: 0700 – 2230 | Daily","phone":"","chain":"Kopifellas","location":{"type":"Point","coordinates":[103.883398822558,1.31320363274175]}},{"title":"NOODLEFELLAS @ Aljunied","address":"440 Geylang Rd, Fellascube, Singapore 389400","openingHours":"Operating hours: 0700 – 1545 | Daily","phone":"","chain":"Kopifellas","location":{"type":"Point","coordinates":[103.883398822558,1.31320363274175]}},{"title":"FELLASCUBE @ Aljunied","address":"440 Geylang Rd, Fellascube, Singapore 389400","openingHours":"Operating hours: 0700 – 2230 | Daily (Tenant’s operating hours may vary)","phone":"","chain":"Kopifellas","location":{"type":"Point","coordinates":[103.883398822558,1.31320363274175]}},{"title":"KOPIFELLAS @ Expo","address":"1 Expo Drive, #01-130, Singapore 486150","openingHours":"Operating hours: 0900 – 2130 | Daily","phone":"","chain":"Kopifellas","location":{"type":"Point","coordinates":[103.960360055236,1.33440171008315]}},{"title":"KOPIFELLAS Cafe @ Pasir Ris","address":"7 Pasir Ris Central, #02-59, Pasir Ris Mall, Singapore 519612","openingHours":"Operating hours: 0800 – 2000 | Daily","phone":"","chain":"Kopifellas","location":{"type":"Point","coordinates":[103.948748873616,1.37382437779468]}},{"title":"KOPIFELLAS Cafe @ Tampines","address":"1 Tampines Walk, #01-106, Our Tampines Hub, Singapore 528523","openingHours":"Operating hours: 0800 – 2000 | Daily","phone":"","chain":"Kopifellas","location":{"type":"Point","coordinates":[103.940381104547,1.35354740485205]}},{"title":"KOPIFELLAS Cafe @ Punggol","address":"88 Punggol Way, #02-133, Punggol Coast Mall, Singapore 829913","openingHours":"Operating hours: 0800 – 1800 | Daily","phone":"","chain":"Kopifellas","location":{"type":"Point","coordinates":[103.910614292409,1.41477353491381]}},{"title":"KOPIFELLAS Cafe @ Downtown East","address":"1 Pasir Ris Close, #01-403, D’marquee @ Downtown East, Singapore 519599","openingHours":"Operating hours: 0830 -1900 | Daily","phone":"","chain":"Kopifellas","location":{"type":"Point","coordinates":[103.95514122442,1.3766980678365]}},{"title":"KOPIFELLAS Express @ one-north","address":"73A Ayer Rajah Crescent, #01-07, Timbre+ one-north, Singapore 139957","openingHours":"Operating hours: 0600 – 1930 | Weekdays (Closed on Public Holidays)","phone":"","chain":"Kopifellas","location":{"type":"Point","coordinates":[103.787526314396,1.29741124785598]}},{"title":"KOPIFELLAS Express @ Beauty World","address":"144 Upper Bukit Timah Rd, #04-49, Beauty World Centre, Singapore 588177","openingHours":"Operating hours: 0730 – 1700 | Daily (Closed on Wednesdays)","phone":"","chain":"Kopifellas","location":{"type":"Point","coordinates":[103.776539385406,1.34241264188642]}},{"title":"KOPIFELLAS @ National University of Singapore (NUS)","address":"11 Research Link, The Terrace @ COM3, Singapore 169931","openingHours":"Operating hours: 0800-1900 | Weekdays  |  0900 – 1800 | Saturday (Closed on Public Holidays)","phone":"","chain":"Kopifellas","location":null},{"title":"KOPIFELLAS @ Science Park","address":"87 Science Park Drive, #01-04, Oasis, Singapore Science Park 1, Singapore 118260","openingHours":"Operating hours: 0730 – 1700 | Daily","phone":"","chain":"Kopifellas","location":{"type":"Point","coordinates":[103.790369856119,1.28774358639098]}},{"title":"KOPIFELLAS Cafe @ Alexandra","address":"438C Alexandra Road, #01-05/05A, Alexandra Technopark C, Singapore 119976","openingHours":"Operating hours: 0730 – 1700 | Weekdays (Closed on weekends & Public Holidays)","phone":"","chain":"Kopifellas","location":{"type":"Point","coordinates":[103.800215758536,1.27749904086527]}},{"title":"KOPIFELLAS @ Fusionopolis","address":"1 Fusionopolis Way, #02-13, Connexis, Singapore 138632","openingHours":"Operating hours: 0730 – 1700 | Weekdays (Closed on weekends & Public Holidays)","phone":"","chain":"Kopifellas","location":{"type":"Point","coordinates":[103.787640882653,1.2995985718601]}},{"title":"KOPIFELLAS @ Dairy Farm","address":"4 Dairy Farm Lane, #01-12, Dairy Farm Mall, Singapore 677622","openingHours":"Operating hours: 0930-2000 | Weekdays  |  0830 – 2030 | Weekends","phone":"","chain":"Kopifellas","location":{"type":"Point","coordinates":[103.77504908361,1.3655707838852]}},{"title":"KOPIFELLAS Cafe @ Tengah","address":"127 Plantation Cres, #02-01, Tengah Plantation Plaza, Singapore 690127","openingHours":"Operating hours: 0800-2000 | Weekdays  |  0800 – 1830 | Weekends and Public Holidays","phone":"","chain":"Kopifellas","location":{"type":"Point","coordinates":[103.734174851203,1.35759319436135]}},{"title":"NOODLEFELLAS @ Yishun","address":"6 Yishun Industrial Street 1, Stall 4, #01-01/02, North View Bizhub, Singapore 768090","openingHours":"Operating hours: 0730 – 1500 | Weekdays (Closed on weekends & Public Holidays)","phone":"","chain":"Kopifellas","location":{"type":"Point","coordinates":[103.843618912685,1.43678096741344]}},{"title":"KOPIFELLAS @ KidZania Singapore","address":"31 Beach View #01-01/02, A-04, KidZania Singapore @ Sentosa, Singapore 098008","openingHours":"Operating hours: 0900 – 1800 | Daily","phone":"","chain":"Kopifellas","location":{"type":"Point","coordinates":[103.820751565199,1.25166196562472]}}],"Playmade":[{"title":"Singapore","openingHours":"11am - 10pm (Daily)","phone":"+65 9826 4507","address":"313 Orchard Rd, #B3- 08, Singapore 238895","chain":"Playmade","location":{"type":"Point","coordinates":[103.838360664485,1.30101436404056]}},{"title":"Ang Mo Kio Hu (Playground)","openingHours":"11am - 10pm (Weekdays), 10.30am - 10pm (Weekends)","phone":"+65 9784 5361","address":"53 Ang Mo Kio Avenue 3, #B1- 51B, Singapore 569933","chain":"Playmade","location":{"type":"Point","coordinates":[103.848693181185,1.36923561405404]}},{"title":"Bukit Panjang Plaza","openingHours":"11am - 10pm (Weekdays), 10.30am - 10pm (Weekends)","phone":"+65 8017 6445","address":"1 Jeleu Rd, #01-17, Plaza, Singapore 677743","chain":"Playmade","location":{"type":"Point","coordinates":[103.764357180314,1.37992045176243]}},{"title":"Buona Vista MRT Station","openingHours":"11am - 10pm (Weekdays), 10.30am - 10pm (Weekends)","phone":"+65 9863 6981","address":"100 North Buona Vista Road, #01-08, Singapore 139345 ","chain":"Playmade","location":{"type":"Point","coordinates":[103.788696211509,1.30768350227128]}},{"title":"City Square Mall","openingHours":"11am - 10pm (Daily)","phone":"+65 8836 3318","address":"180 Kitchener Road, #B2-K10 City Square Mall, Singapore 208539 ","chain":"Playmade","location":{"type":"Point","coordinates":[103.856624019991,1.31142103107683]}},{"title":"Depot Heights Shopping Centre","openingHours":"11am - 8pm (Weekdays), 10.30am - 8pm (Weekends)","phone":"+65 6253 9252","address":"108 Depot Road, #01-03, Singapore 100108 ","chain":"Playmade","location":{"type":"Point","coordinates":[103.810292618353,1.28084469467756]}},{"title":"Hougang Mall","openingHours":"11am - 10pm (Weekdays), 10.30am - 10pm (Weekends)","phone":"+65 6214 9134","address":"90 Hougang Ave 10, #01-25, Singapore 538766 ","chain":"Playmade","location":{"type":"Point","coordinates":[103.893883460466,1.37253315637342]}},{"title":"Jurong Point","openingHours":"11am - 10pm (Weekdays), 10.30am - 10pm (Weekends)","phone":"+65 9819 8657","address":"1 Jurong West Central 2, #B1-36A, Singapore 648886","chain":"Playmade","location":{"type":"Point","coordinates":[103.706685012926,1.3394520043632]}},{"title":"Marina Bay Link Mall","openingHours":"11am - 6.30pm (Weekdays & Pulic Holidays Eve), Closed (Weekends & Pulic Holidays)","phone":"+65 8819 0474","address":"8A Marina Boulevard, #B2-43, Singapore 018984 ","chain":"Playmade","location":{"type":"Point","coordinates":[103.854773147641,1.27992126239604]}},{"title":"Nex Shopping Mall","openingHours":"11am - 10pm (Weekdays), 10.30am - 10pm (Weekends)","phone":"+65 6509 8727","address":"23 Serangoon Central, #04-17, Singapore 556083 ","chain":"Playmade","location":{"type":"Point","coordinates":[103.871861623874,1.35067551435975]}},{"title":"Northpoint City","openingHours":"11am - 10pm (Weekdays), 10.30am - 10pm (Weekends)","phone":"+65 6970 4739","address":"1 Northpoint Drive, South Wing of Northpoint City, #01-154,  Singapore 768019","chain":"Playmade","location":{"type":"Point","coordinates":[103.836324536111,1.42875460572994]}},{"title":"Northshore Plaza II","openingHours":"11am - 10pm (Weekdays), 10.30am - 10pm (Weekends)","phone":"+65 80786705","address":"418 Northshore Drive, #03-02,  Singapore 820418","chain":"Playmade","location":{"type":"Point","coordinates":[103.901321830086,1.41796143093751]}},{"title":"PLQ Mall","openingHours":"11am - 10pm (Daily)","phone":"+65 6502 7856","address":"10 Paya Lear Rd, #B2-K5, Singapore 409057","chain":"Playmade","location":{"type":"Point","coordinates":[103.893414663597,1.31770886898996]}},{"title":"Punggol Digital District (PDD) (Playground)","openingHours":"8am - 9pm (Mon - Fri), 10am - 10pm (Sat, Sun & PH)","phone":"+65 89049011","address":"88 Punggol Way, #02-127, Singapore 829913","chain":"Playmade","location":{"type":"Point","coordinates":[103.910614292409,1.41477353491381]}},{"title":"Seletar Mall (Playground)","openingHours":"11am - 10pm (Weekdays), 10.30am - 10pm (Weekends)","phone":"+65 9826 7642","address":"33 Sengkang West Avenue, #03-K3, The Seletar Mall, Singapore 797653 ","chain":"Playmade","location":{"type":"Point","coordinates":[103.876085067727,1.39130622992517]}},{"title":"Sengkang Grand Mall","openingHours":"11am - 10pm (Weekdays), 10.30am - 10pm (Weekends)","phone":"+65 8804 3240","address":"70 Compassavale Bow, #01-67, Singapore 544692 ","chain":"Playmade","location":{"type":"Point","coordinates":[103.892318220824,1.38381228170133]}},{"title":"Suntec City (Playground)","openingHours":"11am - 10pm (Sunday - Thursday), 11am - 10.30pm (Friday - Saturday)","phone":"+65 9139 3419","address":"3 Temasek Blvd, #B1-151 Suntec City, North Tower, Singapore 038983","chain":"Playmade","location":{"type":"Point","coordinates":[103.860333693777,1.29485990186642]}},{"title":"Tampines 1","openingHours":"11am - 10pm (Weekdays), 10.30am - 10pm (Weekends)","phone":"+65 6509 9693","address":"10 Tampines Central 1, #01-59, Singapore 529536","chain":"Playmade","location":{"type":"Point","coordinates":[103.945071748027,1.35425637962115]}},{"title":"The Clementi Mall","openingHours":"11am - 10pm (Daily)","phone":"+65 8092 8102","address":"3155 Commonwealth Ave W #04-K4 , Singapore 129588 ","chain":"Playmade","location":{"type":"Point","coordinates":[103.764270467593,1.31496652285558]}},{"title":"Tiong Bahru Plaza","openingHours":"11am - 10pm (Weekdays), 10.30am - 10pm (Weekends)","phone":"+65 6261 0787","address":"302 Tiong Bahru Rd, #01-154, Singapore 168732 ","chain":"Playmade","location":{"type":"Point","coordinates":[103.826935079694,1.28646345355064]}},{"title":"Toa Payoh Central","openingHours":"11am - 10pm (Daily), 10.30am - 10pm (Weekends)","phone":"+65 8934 6869","address":"190 Lorong  6 Toa Payoh, #01-564B, Singapore 310190 ","chain":"Playmade","location":{"type":"Point","coordinates":[103.848832062985,1.33297850244995]}},{"title":"Velocity@Novena Square","openingHours":"11am - 10pm (Weekdays), 10.30am - 10pm (Weekends)","phone":"+65 89312979","address":"238 Thomson Road, #02-52 Velocity @ Novena Square,  Singapore 307683","chain":"Playmade","location":{"type":"Point","coordinates":[103.843850630993,1.31996748439185]}},{"title":"Vivo City","openingHours":"11am - 10pm (Weekdays), 10.30am - 10pm (Weekends)","phone":"+65 9088 3712","address":"Vivo City, #02-118, 1 HarourFront Walk, Singapore 098585  ","chain":"Playmade","location":{"type":"Point","coordinates":[103.82207343835,1.26431382492761]}},{"title":"Waterway Point Shopping Centre","openingHours":"11am - 10pm (Weekdays), 10.30am - 10pm (Weekends)","phone":"+65 6242 9505","address":"83 Punggol Central, #B1-K6, Singapore 828761","chain":"Playmade","location":{"type":"Point","coordinates":[103.902130352627,1.40640964880099]}},{"title":"Westgate","openingHours":"11am - 10pm (Weekdays), 10.30am - 10pm (Weekends)","phone":"+65 6970 8939","address":"3 Gateway Dr, #01-K1, Singapore 608532","chain":"Playmade","location":{"type":"Point","coordinates":[103.742586014944,1.33402529481694]}},{"title":"Wisteria Mall","openingHours":"11am - 10pm (Weekdays), 10.30am - 10pm (Weekends)","phone":"+65 8900 9193","address":"598 Yishun Ring Rd, #01-24, Singapore 768698","chain":"Playmade","location":{"type":"Point","coordinates":[103.841268831617,1.41795288501536]}},{"title":"Malaysia","openingHours":"10.30am - 9.30pm (Weekdays), 10.30am - 9.30pm (Weekends)","phone":"03-8959 8948","address":"LG-76A, IOI City Mall, 62502 Putrajaya, Selangor, Malaysia","chain":"Playmade","location":{"type":"Point","coordinates":[103.910436131558,1.32358595871719]}},{"title":"IOI Mall Puchong","openingHours":"10.30am - 9.30pm (Weekdays), 10.30am - 9.30pm (Weekends)","phone":"03-5888 9132","address":"EF23A, First Floor, IOI Mall Puchong, Jalan Puchong, Bandar Puchong Jaya, 47170 Puchong, Selangor Darul Ehsan","chain":"Playmade","location":{"type":"Point","coordinates":[103.881494967857,1.3256856160423]}},{"title":"Sunway Pyramid Mall","openingHours":"10am - 10pm (Daily)","phone":"+6012-753 7388","address":"F1.91C, First Floor, No. 3, Jalan PJS 11/15, Sunway City, 47500 Selangor Darul Ehsa","chain":"Playmade","location":{"type":"Point","coordinates":[103.881494967857,1.3256856160423]}},{"title":"Sunway Velocity","openingHours":"10.30am - 9.30pm (Weekdays), 10.30am - 9.30pm (Weekends)","phone":"03-9202 1556","address":"3-37 Lingkaran SV2, Sunway Velocity, 55100 Kuala Lumpur, Wilayah Persekutuan Kuala Lumpur","chain":"Playmade","location":{"type":"Point","coordinates":[103.768587217712,1.35943243513004]}}],"Local Coffee People":[{"title":"120\nRobinson Road","address":"120 Robinson Road #02-01\nSingapore 068913","openingHours":"Monday – Friday\n7:30am – 4:30pm\n(Last order @ 4:00pm)\nClosed on Saturday, Sunday and Public Holiday","phone":"–","chain":"Local Coffee People","location":{"type":"Point","coordinates":[103.848684034738,1.27907635162327]}},{"title":"CIMB\nPlaza","address":"30 Raffles Place #B1-18\nSingapore 048622","openingHours":"Monday – Friday\n7:30am – 4:30pm\n(Last order @ 4:00pm)\nClosed on Saturday, Sunday and Public Holiday","phone":"+65 9755 7690","chain":"Local Coffee People","location":{"type":"Point","coordinates":[103.851954013719,1.28419337002984]}},{"title":"International\nPlaza","address":"10 Anson Road #01-55\nSingapore 079903","openingHours":"Monday – Friday\n7:30am – 4:30pm\n(Last order @ 4:00pm)\nClosed on Saturday, Sunday and Public Holiday","phone":"+65 9654 8026","chain":"Local Coffee People","location":{"type":"Point","coordinates":[103.845703218601,1.27573568143134]}},{"title":"The\nSail","address":"2 Marina Boulevard #B1-08\nSingapore 018987","openingHours":"Monday – Friday\n7:30am – 4:30pm\n(Last order @ 4:00pm)\nClosed on Saturday, Sunday and Public Holiday","phone":"+65 9665 8724","chain":"Local Coffee People","location":{"type":"Point","coordinates":[103.852658562152,1.28076943476846]}},{"title":"Capital\nSquare 3","address":"25 Church Street #01-08\nSingapore 049482","openingHours":"Monday – Friday\n7:30am – 4:30pm\n(Last order @ 4:00pm)\nClosed on Saturday, Sunday and Public Holiday","phone":"+65 8123 7022","chain":"Local Coffee People","location":{"type":"Point","coordinates":[103.848483585631,1.28386126899928]}},{"title":"Income\n@ Raffles","address":"16 Collyer Quay #01-14\nSingapore 049318","openingHours":"Monday – Friday\n7:30am – 4:30pm\n(Last order @ 4:00pm)\nClosed on Saturday, Sunday and Public Holiday","phone":"+65 9012 9459","chain":"Local Coffee People","location":{"type":"Point","coordinates":[103.852502853417,1.28424248541962]}},{"title":"Republic\nPlaza","address":"9 Raffles Place #B1-03\nSingapore 048619","openingHours":"Monday – Friday\n7:30am – 4:30pm\n(Last order @ 4:00pm)\nClosed on Saturday, Sunday and Public Holiday","phone":"#65 9755 4275","chain":"Local Coffee People","location":{"type":"Point","coordinates":[103.850848813815,1.2828873744144]}}],"Mr Coconut":[{"title":"AMK HUB","address":"53 Ang Mo Kio Avenue 3 #B1-69/70/71 Singapore 569933","openingHours":"Mon – Sun : 10am – 9.45pm","phone":"","chain":"Mr Coconut","location":{"type":"Point","coordinates":[103.848693181185,1.36923561405404]}},{"title":"ANCHORPOINT","address":"370 Alexandra Road #B1-53/54 Singapore 159953","openingHours":"Mon – Sun : 11am – 8.45pm","phone":"","chain":"Mr Coconut","location":{"type":"Point","coordinates":[103.805009964592,1.28861469030586]}},{"title":"BEDOK MALL","address":"311 New Upper Changi Rd #01-K1 Singapore 467360","openingHours":"Mon – Sun : 10am – 9.45pm","phone":"","chain":"Mr Coconut","location":{"type":"Point","coordinates":[103.929256259726,1.32473632812103]}},{"title":"Boon Lay MRT","address":"301 Boon Lay Way #01-29 Singapore 649846","openingHours":"Mon – Sun : 10am – 9.45pm","phone":"","chain":"Mr Coconut","location":{"type":"Point","coordinates":[103.706064622772,1.33860405469845]}},{"title":"Bugis Street","address":"3 New Bugis Street #01-201 Singapore 188867","openingHours":"Mon – Sun : 10am – 9.45pm","phone":"","chain":"Mr Coconut","location":{"type":"Point","coordinates":[103.854935164999,1.3005660952208]}},{"title":"BUKIT BATOK MRT","address":"Bukit Batok Central, 10, #01-04A Singapore 659958","openingHours":"Mon – Sun : 10am – 9.45pm","phone":"","chain":"Mr Coconut","location":{"type":"Point","coordinates":[103.749566478309,1.34903331201636]}},{"title":"CAUSEWAY POINT","address":"1 Woodlands Square #B1-K02 Singapore 738099","openingHours":"Mon – Sun : 10am – 9.45pm","phone":"","chain":"Mr Coconut","location":{"type":"Point","coordinates":[103.78568873405,1.43600784474269]}},{"title":"Century square","address":"2 Tampines Central 5 #01-32A Singapore 529509","openingHours":"Mon – Sun : 10am – 9.45pm","phone":"","chain":"Mr Coconut","location":{"type":"Point","coordinates":[103.943812302253,1.35236829566862]}},{"title":"CHangi city point","address":"5 Changi Business Park Central 1, #01-K21 Changi City Point Singapore 486038","openingHours":"Mon – Sun : 11am – 9.45pm","phone":"","chain":"Mr Coconut","location":{"type":"Point","coordinates":[103.962946083391,1.33408359331373]}},{"title":"Chinatown point","address":"133 New Bridge road #b1-42 Chinatown point Singapore 059413","openingHours":"Mon – Sun : 11am - 10pm","phone":"","chain":"Mr Coconut","location":{"type":"Point","coordinates":[103.844697081142,1.28499882847401]}},{"title":"City square Mall","address":"180 Kitchener Road #B2-18A Singapore 208539","openingHours":"Mon – Sun : 10am – 9.45pm","phone":"","chain":"Mr Coconut","location":{"type":"Point","coordinates":[103.856624019991,1.31142103107683]}},{"title":"Clarke Quay Central","address":"6 Eu Tong Sen Street, The Central #01-37 Singapore 059817","openingHours":"Mon – Sun : 11am – 9.45pm","phone":"","chain":"Mr Coconut","location":{"type":"Point","coordinates":[103.846797382693,1.2888737988701]}},{"title":"CLEMENTI MALL","address":"3155 Commonwealth Ave W, #B1-K13 Singapore 129588","openingHours":"Mon – Sun : 10am – 9.45pm","phone":"","chain":"Mr Coconut","location":{"type":"Point","coordinates":[103.764270467593,1.31496652285558]}},{"title":"COMPASS ONE","address":"1 Sengkang Square#02-33 Singapore 545078","openingHours":"Mon – Sun : 10am – 9.45pm","phone":"","chain":"Mr Coconut","location":{"type":"Point","coordinates":[103.89507054384,1.39205314156706]}},{"title":"Downtown East E!avenue","address":"1 Pasir Ris Close #01-330 & #01-331 Singapore 519599","openingHours":"Mon – Sun : 11am – 9.45pm","phone":"","chain":"Mr Coconut","location":{"type":"Point","coordinates":[103.95514122442,1.3766980678365]}},{"title":"EASTPOINT MALL","address":"3 Simei Street 6 #01-03A Singapore 528833","openingHours":"Mon – Sun : 10am – 9.45pm","phone":"","chain":"Mr Coconut","location":{"type":"Point","coordinates":[103.953024618234,1.34270592355576]}},{"title":"EUNOS MRT","address":"30 Eunos Crescent #01-11 Singapore 409423","openingHours":"Mon – Sun : 10am – 8.45pm","phone":"","chain":"Mr Coconut","location":{"type":"Point","coordinates":[103.903645566693,1.31965992885645]}},{"title":"FAR EAST PLAZA","address":"14 Scotts Road #01-14C Singapore 228213","openingHours":"Mon – Sun : 11am – 9.45pm","phone":"","chain":"Mr Coconut","location":{"type":"Point","coordinates":[103.833792932243,1.30717698071189]}},{"title":"Fusionopolis One","address":"1 Fusionopolis Way, Connexis #B1-05 Singapore 138632","openingHours":"Mon – Fri: 10am – 7.45pm","phone":"","chain":"Mr Coconut","location":{"type":"Point","coordinates":[103.787640882653,1.2995985718601]}},{"title":"Great World City","address":"1 Kim Seng Promenade #B1-K115 Singapore 237994","openingHours":"Mon – Sun : 10.30am – 9.15pm","phone":"","chain":"Mr Coconut","location":{"type":"Point","coordinates":[103.831757911057,1.29380235105066]}},{"title":"Guoco Tower","address":"7 Wallich Street, #B2-01, Guoco TowerSingapore 078884","openingHours":"Mon – Sun : 10am – 8.45pm","phone":"","chain":"Mr Coconut","location":{"type":"Point","coordinates":[103.845155395387,1.27672492702287]}},{"title":"HeadQuarter","address":"15 Senoko Drive #05-09 JTC Food hubSingapore 758202","openingHours":"Telephone: +65 6980 6826","phone":"","chain":"Mr Coconut","location":{"type":"Point","coordinates":[103.798498510589,1.46065559995016]}},{"title":"Heartland Mall - Relocating","address":"TEMPORARILY CLOSED, STAY TUNED Singapore 530205","openingHours":"Mon – Sun : NA","phone":"","chain":"Mr Coconut","location":{"type":"Point","coordinates":[103.885167372726,1.35954177325561]}},{"title":"Hillion Mall","address":"17 Petir Road #B2-35 Hillion Mall Singapore 678278","openingHours":"Mon – Sun : 10am – 9.45pm","phone":"","chain":"Mr Coconut","location":{"type":"Point","coordinates":[103.762842789877,1.37843100800213]}},{"title":"HOUGANG MALL","address":"90 Hougang Ave 10 #01-14 Singapore 538766","openingHours":"Mon – Sun : 10am – 9.45pm","phone":"","chain":"Mr Coconut","location":{"type":"Point","coordinates":[103.893883460466,1.37253315637342]}},{"title":"IMM","address":"2 Jurong East Street 21, #01-K05 Singapore 609601","openingHours":"Mon – Sun : 10am – 9.45pm","phone":"","chain":"Mr Coconut","location":{"type":"Point","coordinates":[103.746894773008,1.33487526118006]}},{"title":"JEWEL CHANGI AIRPORT","address":"78 Airport Boulevard #B2-268 Singapore 819666","openingHours":"Mon – Sun : 10.30am – 9.15pm","phone":"","chain":"Mr Coconut","location":{"type":"Point","coordinates":[103.98907755021,1.3603410066102]}},{"title":"JUNCTION 8","address":"9 Bishan Pl #B1-K6 Singapore 579837","openingHours":"Mon – Sun: 10am – 9.45pm","phone":"","chain":"Mr Coconut","location":{"type":"Point","coordinates":[103.848826189269,1.35042215656701]}},{"title":"Jurong Point","address":"1 Jurong West Central 2, #01-K1 Singapore 648886","openingHours":"Mon – Sun : 10am – 9.45pm","phone":"","chain":"Mr Coconut","location":{"type":"Point","coordinates":[103.706685012926,1.3394520043632]}},{"title":"NEX","address":"23 Serangoon Central #03-K16/17 Singapore 556083","openingHours":"Mon – Sun : 10.30am – 10.15pm","phone":"","chain":"Mr Coconut","location":{"type":"Point","coordinates":[103.871861623874,1.35067551435975]}},{"title":"NORTHPOINT CITY","address":"930 Yishun Avenue 2 #B1-42 Singapore 769098","openingHours":"Mon – Sun : 10am – 9.45pm","phone":"","chain":"Mr Coconut","location":{"type":"Point","coordinates":[103.835776491468,1.42969848626288]}},{"title":"Novena square","address":"238 Thomson Road #02-53A Singapore 307683","openingHours":"Mon – Sun : 10am – 8.45pm","phone":"","chain":"Mr Coconut","location":{"type":"Point","coordinates":[103.843850630993,1.31996748439185]}},{"title":"One Holland Village","address":"7 Holland Village Way #01-38 Singapore 275748","openingHours":"Mon – Sun: 11.00am - 9.45pm","phone":"","chain":"Mr Coconut","location":{"type":"Point","coordinates":[103.794145546471,1.31104916811064]}},{"title":"One Punggol Hub","address":"1 Punggol Drive #01-03 One Punggol Singapore 828629","openingHours":"Mon – Sun: 11.00am - 9.45pm","phone":"","chain":"Mr Coconut","location":{"type":"Point","coordinates":[103.905104199124,1.40829892495231]}},{"title":"ONE RAFFLES PLACE","address":"1 Raffles Place #B1-35 Singapore 048616","openingHours":"Mon – Fri: 10am – 7.45pm\nCLOSED ON SAT, SUN AND PH","phone":"","chain":"Mr Coconut","location":{"type":"Point","coordinates":[103.851072545834,1.28434954622306]}},{"title":"ORCHARD GATEWAY","address":"277 Orchard Road #01-02 Singapore 238858","openingHours":"Mon – Sun: 10am – 9.45pm","phone":"","chain":"Mr Coconut","location":{"type":"Point","coordinates":[103.839325098352,1.30048912114759]}},{"title":"PARKWAY PARADE","address":"80 Marine Parade Rd #B1-83J Singapore 449269","openingHours":"Mon – Sun : 11am – 9.45pm","phone":"","chain":"Mr Coconut","location":{"type":"Point","coordinates":[103.90533928065,1.30091736056425]}},{"title":"PAYA LEBAR QUARTER","address":"10 Paya Lebar Road #B2-K8Singapore 409057","openingHours":"Mon – Sun : 10am – 9.45pm","phone":"","chain":"Mr Coconut","location":{"type":"Point","coordinates":[103.893414663597,1.31770886898996]}},{"title":"PLAZA SINGAPURA","address":"68 Orchard Road #B2-48/49Singapore 238839","openingHours":"Mon – Sun : 10am – 9.45pm","phone":"","chain":"Mr Coconut","location":{"type":"Point","coordinates":[103.845067272666,1.30082071769235]}},{"title":"SENGKANG GRAND MALL","address":"70 Compassvale Bow #01-08 Singapore 544692","openingHours":"Mon – Sun : 11am – 9.45pm","phone":"","chain":"Mr Coconut","location":{"type":"Point","coordinates":[103.892318220824,1.38381228170133]}},{"title":"Plantation plaza","address":"127 PLantation Cres #02-17 Singapore 690127","openingHours":"Mon – Sun : 11am – 9.45pm","phone":"","chain":"Mr Coconut","location":{"type":"Point","coordinates":[103.734174851203,1.35759319436135]}},{"title":"Siloso Beach","address":"60 Siloso Beach Walk #01-02 Singapore 098997","openingHours":"Mon – Sun : 10.30am – 9.15pm","phone":"","chain":"Mr Coconut","location":{"type":"Point","coordinates":[103.817162874792,1.25170699462885]}},{"title":"SUNTEC CITY","address":"3 Temasek Boulevard #01-K3 Singapore 038983","openingHours":"Mon – Sun : 11am – 9.45pm","phone":"","chain":"Mr Coconut","location":{"type":"Point","coordinates":[103.860333693777,1.29485990186642]}},{"title":"Tampines 1","address":"10 Tampines Central 1 #B1-K19 Singapore 529536","openingHours":"Mon – Sun : 10am – 9.45pm","phone":"","chain":"Mr Coconut","location":{"type":"Point","coordinates":[103.945071748027,1.35425637962115]}},{"title":"The Star Vista","address":"1 Vista Exchange Green #B1-37B Singapore 138617","openingHours":"Mon – Sun : 11am – 9.45pm","phone":"","chain":"Mr Coconut","location":{"type":"Point","coordinates":[103.788287276561,1.30695082420353]}},{"title":"The Seletar Mall","address":"33 Sengkang West Avenue #B1-22 Singapore 797653","openingHours":"Mon – Sun : 10am – 9.45pm","phone":"","chain":"Mr Coconut","location":{"type":"Point","coordinates":[103.876085067727,1.39130622992517]}},{"title":"The Woodleigh Mall","address":"11 Bidadari Park Drive #B1-K27 Singapore 367803","openingHours":"Mon – Sun : 10am – 9.45pm","phone":"","chain":"Mr Coconut","location":{"type":"Point","coordinates":[103.871750105256,1.33869419209869]}},{"title":"TOA PAYOH","address":"Blk 190, Toa Payoh Lorong 6, #01-562 Singapore 310190","openingHours":"Mon – Sun : 10am – 9.45pm","phone":"","chain":"Mr Coconut","location":{"type":"Point","coordinates":[103.848832062985,1.33297850244995]}},{"title":"Tiong Bahru Plaza","address":"302 Tiong Bahru Rd, #01-153 Singapore 168732","openingHours":"Mon – Sun : 10am – 9.45pm","phone":"","chain":"Mr Coconut","location":{"type":"Point","coordinates":[103.826935079694,1.28646345355064]}},{"title":"Vivo City","address":"1 HarbourFront Walk, #02-112 Singapore 098585","openingHours":"Mon – Sun : 10am – 9.45pm","phone":"","chain":"Mr Coconut","location":{"type":"Point","coordinates":[103.82207343835,1.26431382492761]}},{"title":"WATERWAY POINT","address":"83 Punggol Central #01-K7 Singapore 828761","openingHours":"Mon – Sun : 10am – 9.45pm","phone":"","chain":"Mr Coconut","location":{"type":"Point","coordinates":[103.902130352627,1.40640964880099]}},{"title":"WESTGATE","address":"3 Gateway Drive, #B2-K17 Singapore 608532","openingHours":"Mon – Sun : 10.30am – 9.15pm","phone":"","chain":"Mr Coconut","location":{"type":"Point","coordinates":[103.742586014944,1.33402529481694]}},{"title":"White Sands","address":"1 Pasir Ris Central St 3, #01-01 Singapore 518457","openingHours":"Mon – Sun : 10am – 9.45pm","phone":"","chain":"Mr Coconut","location":{"type":"Point","coordinates":[103.949763493981,1.3724564071358]}},{"title":"Wisma Orchard","address":"435 Orchard Road, Wisma Atria, #B1-49 Singapore 238877","openingHours":"Mon – Sun : 10am – 9.45pm","phone":"","chain":"Mr Coconut","location":{"type":"Point","coordinates":[103.833189592785,1.30369890679412]}},{"title":"Woodlands mrt station","address":"11 Woodlands Square, #B1-20 Woodlands MRT Station, Singapore 737736","openingHours":"Mon – Sun : 10.30am – 9.15pm","phone":"","chain":"Mr Coconut","location":{"type":"Point","coordinates":[103.787378796736,1.43730091101476]}},{"title":"Marine Parade mrt station","address":"101 Marine Parade Road, #B1-03 Marine Parade MRT Station, Singapore 449971","openingHours":"Mon – Sun : 11.00am - 9.45pm","phone":"","chain":"Mr Coconut","location":{"type":"Point","coordinates":[103.904727813023,1.30262288569836]}},{"title":"Changi Airport Terminal 3 (Public)","address":"65 Airport Boulevard #B2-30A Changi Airport Terminal 3 , Singapore 819663","openingHours":"Mon – Sun : 10.30am - 9.15pm","phone":"","chain":"Mr Coconut","location":{"type":"Point","coordinates":[103.986211815854,1.35640628728788]}},{"title":"Tengah Bus Interchange","address":"42A Tengah Boulevard #01-13, Tengah Bus Interchange, Singapore 699896","openingHours":"Mon – Sun : 11.00am - 8.45pm","phone":"","chain":"Mr Coconut","location":{"type":"Point","coordinates":[103.735002355192,1.36314647008944]}},{"title":"Punggol coast mall","address":"88 punggol way #02-130 punggol coast mall, Tower 7 Singapore 829913","openingHours":"Mon – Sun : 10.30am - 9.15pm","phone":"","chain":"Mr Coconut","location":{"type":"Point","coordinates":[103.910614292409,1.41477353491381]}},{"title":"one kent ridge","address":"1 Lower kent ridge #01-15,one @ Kent Ridge Singapore 119082","openingHours":"Mon – Sun : 10.30m - 8.15pm","phone":"","chain":"Mr Coconut","location":{"type":"Point","coordinates":[103.784084020155,1.29277432702258]}}],"Ya Kun":[{"title":"Causeway Point","address":"Ya Kun Family Cafe, 1 Woodlands Square, #B1-23, Singapore 738099","openingHours":"Mon - Sun: 7:30am – 9:00pm (Last Order is half an hour before closing time)","phone":"+65 68942237","chain":"Ya Kun","location":{"type":"Point","coordinates":[103.78568873405,1.43600784474269]}},{"title":"Canberra Plaza","address":"133 Canberra View, #03-12, Singapore 750133","openingHours":"Mon - Sun: 7.30am - 9.30pm (Last Order is half an hour before closing time)","phone":"+65 6929 9442","chain":"Ya Kun","location":{"type":"Point","coordinates":[103.830345369213,1.44349544527985]}},{"title":" HDB Hub","address":"490 Lorong 6 Toa Payoh #01-16, Singapore 310490","openingHours":"Mon - Sun: 7.30am - 9.30pm (Last Order is half an hour before closing time)","phone":"+65 6358 1134","chain":"Ya Kun","location":{"type":"Point","coordinates":[103.848267915547,1.3325746127759]}},{"title":"Jubilee Square","address":"61 Ang Mo Kio Ave 8 #01-13/16, Singapore 569814","openingHours":"Mon - Sun: 7.30am - 6:30pm (Last Order is half an hour before closing time)","phone":"+65 68026455","chain":"Ya Kun","location":{"type":"Point","coordinates":[103.847775723803,1.37178551879642]}},{"title":" Junction  8 Shopping Centre","address":"9 Bishan Place #B1-26, Singapore 579837","openingHours":"Mon - Sun: 7.30am - 9.00pm (Last Order is half an hour before closing time)","phone":"+65 6970 1430","chain":"Ya Kun","location":{"type":"Point","coordinates":[103.848826189269,1.35042215656701]}},{"title":"Kampung Admiralty","address":"676 Woodlands Drive 71 #01-18, Singapore 730676","openingHours":"Mon - Sun: 7.00am - 8.00pm (Last Order is half an hour before closing time)","phone":"+65 6264 8554","chain":"Ya Kun","location":{"type":"Point","coordinates":[103.800720711621,1.43974951798078]}},{"title":"City Square Mall","address":"180 Kitchener Road #B2-K12/23, Singapore 208539","openingHours":"Mon - Sun: 7.30am - 10.00pm (Last Order is half an hour before closing time)","phone":"+65 6509 4031","chain":"Ya Kun","location":{"type":"Point","coordinates":[103.856624019991,1.31142103107683]}},{"title":" Aperia Mall","address":"12 Kallang Ave #01-33, Singapore 339511","openingHours":"Mon - Fri: 7.30am - 6.00pm Sat & Sun: 7.30am - 5.00pm (Last Order is half an hour before closing time)","phone":"+65 6968 1245","chain":"Ya Kun","location":{"type":"Point","coordinates":[103.864326436447,1.3097112065077]}},{"title":" Bedok Mall","address":"311 New Upper Changi Road #B2-K17 to K19, Singapore 467360","openingHours":"Mon - Sun: 7.30am - 9.00pm (Last Order is half an hour before closing time)","phone":"+65 6322 7512","chain":"Ya Kun","location":{"type":"Point","coordinates":[103.929256259726,1.32473632812103]}},{"title":"HarbourFront Centre","address":"1 Maritime Square #03-59, Singapore 099253","openingHours":"Mon - Sun: 8.00am - 8.00pm (Last Order is half an hour before closing time)","phone":"+65 6276 7691","chain":"Ya Kun","location":{"type":"Point","coordinates":[103.82005101011,1.26401293230767]}},{"title":"VivoCity","address":"1 Harbourfront Walk #B2-26, Singapore 098585","openingHours":"Mon - Sun: 7.30am - 9.00pm (Last Order is half an hour before closing time)","phone":"+65 6225 5789","chain":"Ya Kun","location":{"type":"Point","coordinates":[103.82207343835,1.26431382492761]}},{"title":"Fusionopolis","address":"1 Fusionopolis Way #B1-15, Singapore 138632","openingHours":"Mon - Sun: 7.30am - 7.00pm (Last Order is half an hour before closing time)","phone":"+65 6463 0527","chain":"Ya Kun","location":{"type":"Point","coordinates":[103.787640882653,1.2995985718601]}},{"title":"100AM","address":"100 Tras Street #02-16, Singapore 079027","openingHours":"Mon - Fri: 7.30am - 6.30pm Sat, Sun & PH: 7.30am - 7.30pm (Last Order is half an hour before closing time)","phone":"+65 6968 1471‬","chain":"Ya Kun","location":{"type":"Point","coordinates":[103.843488359469,1.27468281482263]}},{"title":" ARTRA Condominium (Redhill)","address":"12 Alexandra View #01-08, Singapore 158745","openingHours":"Mon - Sun: 8.00am - 8.00pm (Last Order is half an hour before closing time)","phone":"+65 6908 0381","chain":"Ya Kun","location":{"type":"Point","coordinates":[103.817185273903,1.29003067053998]}},{"title":"Beach Road","address":"345 Beach Road, Singapore 199568","openingHours":"Mon - Sun: 7.30am - 5.00pm (Last Order is half an hour before closing time)","phone":"+65 6299 3345","chain":"Ya Kun","location":{"type":"Point","coordinates":[103.861602044301,1.30156260221458]}},{"title":"E!Hub @ Downtown East","address":"Ya Kun Family Cafe, 1 Pasir Ris Close, #02-107/108, Singapore 519599","openingHours":"Mon - Sun: 7.30am - 10.00pm (Last Order is half an hour before closing time)","phone":"+65 6583 9620","chain":"Ya Kun","location":{"type":"Point","coordinates":[103.95514122442,1.3766980678365]}},{"title":"Jurong Point","address":"Ya Kun Family Cafe, 1 Jurong West Central 2, #02-K1/K2, Singapore 648886","openingHours":"Mon - Sun: 7.30am - 9.00pm (Last Order is half an hour before closing time)","phone":"+65 6792 8146","chain":"Ya Kun","location":{"type":"Point","coordinates":[103.706685012926,1.3394520043632]}},{"title":"Changi Airport Terminal 3","address":"65 Airport Boulevard, #B2-LF3, Singapore 819663","openingHours":"Mon - Sun:  7:30am -11:00pm (Last Order is half an hour before closing time)","phone":"+65 6241 4341","chain":"Ya Kun","location":{"type":"Point","coordinates":[103.986211815854,1.35640628728788]}},{"title":"West Mall","address":"Ya Kun Family Cafe, 1 Bukit Batok Central Link, #01-10/41, Singapore 658713","openingHours":"Mon - Thu: 7.30am - 9.00pm Fri - Sun: 7.30am - 9.30pm (Last Order is half an hour before closing time)","phone":"+65 8243 6787","chain":"Ya Kun","location":{"type":"Point","coordinates":[103.749171990184,1.34992152880216]}},{"title":"One Raffles Place","address":"1 Raffles Place, #B1-13, Singapore 048616","openingHours":"Mon - Fri: 7.15am - 7.00pm Sat: 7.30am - 5.00pm Sun & PH: 7.45am to 5.00pm (Last Order is half an hour before closing time)","phone":"+65 6536 6456","chain":"Ya Kun","location":{"type":"Point","coordinates":[103.851072545834,1.28434954622306]}},{"title":"Bugis Junction","address":"200 Victoria Street, #B1-11, Singapore 188024","openingHours":"Mon - Sun: 7.30am - 10.00pm (Last Order is half an hour before closing time)","phone":"+65 6238 8904","chain":"Ya Kun","location":{"type":"Point","coordinates":[103.855955399263,1.29981260775979]}},{"title":"Bukit Panjang Plaza","address":"1 Jelebu Road #02-01A, Singapore 677743","openingHours":"Mon - Sun: 7.00am - 10.00pm (Last Order is half an hour before closing time)","phone":"+65 6610 2473","chain":"Ya Kun","location":{"type":"Point","coordinates":[103.764357180314,1.37992045176243]}},{"title":"Bukit Timah Plaza","address":"1 Jalan Anak Bukit #B1-52B, Singapore 588996","openingHours":"Sun - Thurs: 7.30am - 7.30pm Friday - Sat 7.30am - 8.00pm (Last Order is half an hour before closing time)","phone":"+65 6996 3982","chain":"Ya Kun","location":{"type":"Point","coordinates":[103.778600077834,1.33875930729064]}},{"title":"Changi City Point","address":"5 Changi Business Park Central 1, #B1- K1, Singapore 486038","openingHours":"Mon - Fri & PH: 7.30am - 5.30pm Sat - Sun: 7.30am - 7.30pm (Last Order is half an hour before closing time)","phone":"+65 6909 8274","chain":"Ya Kun","location":{"type":"Point","coordinates":[103.962946083391,1.33408359331373]}},{"title":"The Clementi Mall","address":"3155 Commonwealth Avenue West, #B1-21/23, Singapore 129588","openingHours":"Mon - Sun: 7.00am - 10.00pm (Last Order is half an hour before closing time)","phone":"+65 6612 1395","chain":"Ya Kun","location":{"type":"Point","coordinates":[103.764270467593,1.31496652285558]}},{"title":"Compass One","address":"1 Sengkang Square, #01-37, Singapore 545078","openingHours":"Mon - Sun: 7.00am - 9.00pm (Last Order is half an hour before closing time)","phone":"+65 6386 4165","chain":"Ya Kun","location":{"type":"Point","coordinates":[103.89507054384,1.39205314156706]}},{"title":"Clarke Quay Central","address":"6 Eu Tong Sen Street, #01-31, Singapore 059817","openingHours":"Mon - Thu & Sun: 7.00am - 9.00pm Fri - Sat & PH eve 7.00am - 10.00pm (Last Order is half an hour before closing time)","phone":"+65 6534 7332","chain":"Ya Kun","location":{"type":"Point","coordinates":[103.846797382693,1.2888737988701]}},{"title":"Chinatown Point","address":"133 New Bridge Road, #B2-14/15/16, Singapore 059413","openingHours":"Mon - Sun: 7.30am - 9.00pm (Last Order is half an hour before closing time)","phone":"+65 6655 8309","chain":"Ya Kun","location":{"type":"Point","coordinates":[103.844697081142,1.28499882847401]}},{"title":"Century Square","address":"2 Tampines Central 5, #B1-21, Singapore 529509","openingHours":"Mon - Sun: 7.30am - 9.00pm (Last Order is half an hour before closing time)","phone":"+65 6781 1475","chain":"Ya Kun","location":{"type":"Point","coordinates":[103.943812302253,1.35236829566862]}},{"title":"Eastpoint Mall","address":"3 Simei Street 6, #02-K8, Singapore 528833","openingHours":"Mon - Sun: 8.00am - 9.00pm (Last Order is half an hour before closing time)","phone":"+65 6802 5236","chain":"Ya Kun","location":{"type":"Point","coordinates":[103.953024618234,1.34270592355576]}},{"title":"Far East Plaza","address":"14 Scotts Road, #01-16, Singapore 228213","openingHours":"Mon - Sun: 8.00am - 6.00pm (Last Order is half an hour before closing time)","phone":"+65 6341 9554","chain":"Ya Kun","location":{"type":"Point","coordinates":[103.833792932243,1.30717698071189]}},{"title":"Far East Square","address":"18 China Street, #01-01, Singapore 049560","openingHours":"Mon - Fri: 7.30am - 5.00pm Sat & Sun: 7.30am - 3.00pm Closed on PH (Last Order is half an hour before closing time)","phone":"+65 6438 3638","chain":"Ya Kun","location":{"type":"Point","coordinates":[103.847874757723,1.28347631059091]}},{"title":"Frasers Tower","address":"182 Cecil Street, #02-06, Singapore 069547","openingHours":"Mon - Fri: 7.30am - 7.00pm Sat, Sun & PH: Closed (Last Order is half an hour before closing time)","phone":"+65 6900 3962","chain":"Ya Kun","location":{"type":"Point","coordinates":[103.847292199676,1.27884346345479]}},{"title":"Fortune Centre","address":"190 Middle Road, #01-09, Singapore 188979","openingHours":"Mon - Sun: 7.30am - 7.00pm (Last Order is half an hour before closing time)","phone":"+65 6337 0486","chain":"Ya Kun","location":{"type":"Point","coordinates":[103.852286627386,1.30042241913975]}},{"title":"Funan","address":"107 North Bridge Rd, #B2-06, Singapore 179105","openingHours":"Mon - Sun: 8.00am - 9.00pm (Last Order is half an hour before closing time)","phone":"+65 6970 1158","chain":"Ya Kun","location":{"type":"Point","coordinates":[103.849989790085,1.29134759697794]}},{"title":"Great World ","address":"1 Kim Seng Promenade, #01-135, Singapore 237994","openingHours":"Mon - Thur: 7.30am - 7.00pm Fri - Sun: 7.30am - 8.30pm (Last Order is half an hour before closing time)","phone":"+65 6219 0395","chain":"Ya Kun","location":{"type":"Point","coordinates":[103.831757911057,1.29380235105066]}},{"title":"Hong Leong Building","address":"16 Raffles Quay, #B1-46, Singapore 048581","openingHours":"Mon - Fri: 7.30am - 5.00pm Sat, Sun & PH: Closed (Last Order is half an hour before closing time)","phone":"+65 6224 1260","chain":"Ya Kun","location":{"type":"Point","coordinates":[103.850919074926,1.28136301224216]}},{"title":"Hillion Mall","address":"17 Petir Road, #B2-23/24, Singapore 678278","openingHours":"Mon - Sun: 7.30am - 10.00pm (Last Order is half an hour before closing time)","phone":"+65 6265 9144","chain":"Ya Kun","location":{"type":"Point","coordinates":[103.762842789877,1.37843100800213]}},{"title":"IMM","address":"2 Jurong East Street 21, #01-50, Singapore 609601","openingHours":"Mon - Sun: 7.30am - 10.00pm (Last Order is half an hour before closing time)","phone":"","chain":"Ya Kun","location":{"type":"Point","coordinates":[103.746894773008,1.33487526118006]}},{"title":"ION Orchard","address":"2 Orchard Turn, #B4-49, Singapore 238801","openingHours":"Mon - Sun: 7.30am - 10.00pm (Last Order is half an hour before closing time)","phone":"+65 6238 0458","chain":"Ya Kun","location":{"type":"Point","coordinates":[103.832032328465,1.30397974144505]}},{"title":"Shell Station @ Jalan Ahmad Ibrahim","address":"311 Jalan Ahmad Ibrahim, Singapore 619595","openingHours":"Mon - Fri: 7.00am - 6.30pm Sat, Sun & PH: 7.00am - 4.00pm (Last Order is half an hour before closing time)","phone":"+65 6258 4094","chain":"Ya Kun","location":{"type":"Point","coordinates":[103.721771262524,1.32353941367609]}},{"title":"JEM","address":"50 Jurong Gateway Road, #B1-39, Singapore 608549","openingHours":"Mon - Sun: 7.30am - 9.00pm (Last Order is half an hour before closing time)","phone":"+65 6694 2024","chain":"Ya Kun","location":{"type":"Point","coordinates":[103.743359442234,1.33332819303974]}},{"title":"Jewel Changi Airport","address":"78, Airport Boulevard, #01-K206/K207, Singapore 819666","openingHours":"Mon - Sun: 7.30am - 9.30pm (Last Order is half an hour before closing time)","phone":"","chain":"Ya Kun","location":{"type":"Point","coordinates":[103.98907755021,1.3603410066102]}},{"title":"Kovan Heartland Mall","address":"205 Hougang Street 21, #02-32/33, Singapore 530205","openingHours":"Mon - Sun: 7.30am - 9.00pm (Last Order is half an hour before closing time)","phone":"+65 6917 0043","chain":"Ya Kun","location":{"type":"Point","coordinates":[103.885167372726,1.35954177325561]}},{"title":"Lot One","address":"21 Choa Chu Kang Avenue 4, #B1-K4/K5, Singapore 689812","openingHours":"Mon - Sun: 7.30am - 10.00pm (Last Order is half an hour before closing time)","phone":"+65 6877 0828","chain":"Ya Kun","location":{"type":"Point","coordinates":[103.745022476677,1.38493874036122]}},{"title":"Margaret Market","address":"38 Margaret Drive #02-05, Singapore 141038","openingHours":"Mon - Thu, Sun: 7.30am - 7.00pm Fri - Sat & eve of PH: 7.30am - 7.30pm (Last Order is half an hour before closing time)","phone":"","chain":"Ya Kun","location":{"type":"Point","coordinates":[103.804319690649,1.29773598434542]}},{"title":"Marina Square","address":"6 Raffles Boulevard, #02-207A, Singapore 039594","openingHours":"Mon - Thu: 7.30am - 8.00pm    Fri - Sun & PH: 7.30am - 9.00pm                (Last Order is half an hour before closing time)","phone":"+65 6270 0250","chain":"Ya Kun","location":{"type":"Point","coordinates":[103.85857808906,1.29185533273026]}},{"title":"The Metropolis","address":"9 North Buona Vista Drive, #01-02, Singapore 138588","openingHours":"Mon - Fri: 7.15am - 5.45pm Sat, Sun & PH: Closed (Last Order is half an hour before closing time)","phone":"+65 6513 1719","chain":"Ya Kun","location":{"type":"Point","coordinates":[103.791237458059,1.30624556811811]}},{"title":"Maxwell South Bridge Road","address":"297 South Bridge Road, Singapore 058839","openingHours":"Mon - Sun: 7.30am - 8.30pm (Last Order is half an hour before closing time)","phone":"+65 6610 0952","chain":"Ya Kun","location":{"type":"Point","coordinates":[103.844976154721,1.28130032043661]}},{"title":"NEX Mall","address":"23 Serangoon Central #B2-46, Singapore 556083","openingHours":"Mon - Sun: 7.30am - 8.30pm (Last Order is half an hour before closing time)","phone":"+65 6612 3048","chain":"Ya Kun","location":{"type":"Point","coordinates":[103.871861623874,1.35067551435975]}},{"title":"Northpoint City","address":"930 Yishun Ave 2, #B1-22/23/24, Singapore 769098","openingHours":"Mon - Sun: 7.30am - 9.00pm (Last Order is half an hour before closing time)","phone":"+65 6481 0817","chain":"Ya Kun","location":{"type":"Point","coordinates":[103.835776491468,1.42969848626288]}},{"title":"Ng Teng Fong Hospital","address":"1 Jurong East Street 21 Tower A, #02-12, Singapore 609606","openingHours":"Mon - Sun: 7.30am - 7.00pm (Last Order is half an hour before closing time)","phone":"+65 6255 1031","chain":"Ya Kun","location":{"type":"Point","coordinates":[103.746634963937,1.33260943666141]}},{"title":"Oasis Terraces","address":"681 Punggol Drive, #B1-10/11/12, Singapore 820681","openingHours":"Mon - Sun: 7.30am - 10.00pm (Last Order is half an hour before closing time)","phone":"+65 6513 4381","chain":"Ya Kun","location":{"type":"Point","coordinates":[103.913215101343,1.40278015725693]}},{"title":"Paya Lebar Square","address":"60 Paya Lebar Road, #01-87, Singapore 409051","openingHours":"Mon - Sun: 7.30am - 9.00pm (Last Order is half an hour before closing time)","phone":"+65 6384 0623","chain":"Ya Kun","location":{"type":"Point","coordinates":[103.892580778514,1.31881487007651]}},{"title":"Paragon","address":"290 Orchard Road, #B1-38, Singapore 238859","openingHours":"Mon - Sun: 7.30am - 9.30pm (Last Order is half an hour before closing time)","phone":"+65 6235 7314","chain":"Ya Kun","location":{"type":"Point","coordinates":[103.83524031199,1.30372322368856]}},{"title":"Parkway Parade","address":"80 Marine Parade Road, #01-14B, Singapore 449269","openingHours":"Mon - Sun: 7.30am - 8.00pm (Last Order is half an hour before closing time)","phone":"+65 6970 9237","chain":"Ya Kun","location":{"type":"Point","coordinates":[103.90533928065,1.30091736056425]}},{"title":"Plaza 8","address":"1 Changi Business Park Crescent, #01-08, Singapore 486025","openingHours":"Mon - Fri: 7.00am - 7.00pm Sat, Sun & PH: Closed (Last Order is half an hour before closing time)","phone":"+65 6966 0390","chain":"Ya Kun","location":{"type":"Point","coordinates":[103.965411905521,1.33360158623326]}},{"title":"Plaza Singapura","address":"68 Orchard Road, #04-70/71, Singapore 238839","openingHours":"Mon - Sun: 8.00am - 9.00pm (Last Order is half an hour before closing time)","phone":"+65 6877 6995","chain":"Ya Kun","location":{"type":"Point","coordinates":[103.845067272666,1.30082071769235]}},{"title":"Raffles City Shopping Centre","address":"252 North Bridge Road, #B1-80, Singapore 179103","openingHours":"Mon - Sun: 7.30am - 10.00pm (Last Order is half an hour before closing time)","phone":"+65 6338 0026","chain":"Ya Kun","location":{"type":"Point","coordinates":[103.853119904656,1.29389357863312]}},{"title":"Shaw Plaza","address":"360 Balestier Road, #01-14, Singapore 329783","openingHours":"Mon - Sun: 8.00am - 8.30pm (Last Order is half an hour before closing time)","phone":"+65 6802 7302","chain":"Ya Kun","location":{"type":"Point","coordinates":[103.850995830211,1.32525301846661]}},{"title":"The Seletar Mall","address":"33 Sengkang West Avenue, #B1-20/21, Singapore 797653","openingHours":"Mon - Sun: 7.30am to 10.30pm (Last Order is half an hour prior to closing)","phone":"+65 6983 2253","chain":"Ya Kun","location":{"type":"Point","coordinates":[103.876085067727,1.39130622992517]}},{"title":"Sun Plaza","address":"30 Sembawang Drive, #B1-42/45, Singapore 757713","openingHours":"Mon - Sun: 7.30am - 8.30pm (Last Order is half an hour before closing time)","phone":"+65 6996 6063","chain":"Ya Kun","location":{"type":"Point","coordinates":[103.819498634275,1.44819666623789]}},{"title":"Sembawang Shopping Centre","address":"604 Sembawang Rd #01-20, Singapore 758459","openingHours":"Mon - Sun: 7.30am - 7.00pm (Last Order is half an hour before closing time)","phone":"+65 6969 1538","chain":"Ya Kun","location":{"type":"Point","coordinates":[103.82479165671,1.44175296834191]}},{"title":"Suntec City (East Tower Basement 1)","address":"3 Temasek Boulevard, #B1-104, Singapore 038983","openingHours":"Mon - Sun: 7.30am - 9.00pm (Last Order is half an hour before closing time)","phone":"+65 6337 6829","chain":"Ya Kun","location":{"type":"Point","coordinates":[103.860333693777,1.29485990186642]}},{"title":"Suntec City (West Atrium Level 2)","address":"3 Temasek Boulevard, #02-349, 038983","openingHours":"Mon - Thu: 7.30am - 6.00pm Fri, Sat & PH eve: 7.30am - 8.30pm Sun : 7.30am - 8.00pm (Last Order is half an hour before closing time)","phone":"+65 6251 8380","chain":"Ya Kun","location":{"type":"Point","coordinates":[103.860333693777,1.29485990186642]}},{"title":"SAFRA Toa Payoh","address":"293 Lorong 6 Toa Payoh, #01-01, Singapore 319387","openingHours":"Mon - Sun: 7.30am - 9.00pm (Last Order is half an hour before closing time)","phone":"+65 6261 5426","chain":"Ya Kun","location":{"type":"Point","coordinates":[103.854213740191,1.32988651708771]}},{"title":"Changi Airport Terminal 2 (Transit)","address":"60 Airport Boulevard #02-803, Singapore 819643","openingHours":"Mon – Sun: 6.00am – 1:00am (Last Order is at 1:00am)","phone":"","chain":"Ya Kun","location":{"type":"Point","coordinates":[103.989141952518,1.35529943230217]}},{"title":"Tiong Bahru Plaza","address":"302 Tiong Bahru Road, #B1-138, Singapore 168732","openingHours":"Mon - Sun: 7.30am - 8.30pm (Last Order is half an hour before closing time)","phone":"+65 6264 8526","chain":"Ya Kun","location":{"type":"Point","coordinates":[103.826935079694,1.28646345355064]}},{"title":"Tang Plaza","address":"310 Orchard Road, #B1-02, Singapore 238864","openingHours":"Temporary Closed","phone":"+65 6732 9976","chain":"Ya Kun","location":{"type":"Point","coordinates":[103.83306065595,1.30505783063001]}},{"title":"Thomson Plaza","address":"301 Upper Thomson Road, #01-95, Singapore 574408","openingHours":"Mon - Sun: 8.00am - 8.00pm (Last Order is half an hour before closing time)","phone":"+65 6513 8361","chain":"Ya Kun","location":{"type":"Point","coordinates":[103.830919782333,1.35466902496424]}},{"title":"Takashimaya Shopping Centre","address":"391A Orchard Road Basement 2 Food Hall, Singapore 238872","openingHours":"Mon - Sun: 10.00am - 9.30pm (Last Order 15 minutes before closing time)","phone":"+65 6738 4815","chain":"Ya Kun","location":{"type":"Point","coordinates":[103.835181912297,1.30224168528687]}},{"title":"United Square Shopping Mall","address":"101 Thomson Road, #B1-38, Singapore 307591","openingHours":"Mon - Fri: 7.30am - 7.30pm Sat & Sun: 7.30am - 8.00pm (Last Order is half an hour before closing time)","phone":"+65 6909 2349","chain":"Ya Kun","location":{"type":"Point","coordinates":[103.843670754851,1.31742800767635]}},{"title":"White Sands","address":"1 Pasir Ris Central St 3, #B1-22/23, Singapore 518457","openingHours":"Mon - Sun: 8.00am - 9.00pm (Last Order is half an hour before closing time)","phone":"+65 6908 0860","chain":"Ya Kun","location":{"type":"Point","coordinates":[103.949763493981,1.3724564071358]}},{"title":"The Woodleigh Mall","address":"11 Bidadari Park Drive #B1-07, Singapore 367803","openingHours":"Mon - Sun: 8.00am - 9.00pm (Last Order is half an hour before closing time)","phone":"+65 6610 6008","chain":"Ya Kun","location":{"type":"Point","coordinates":[103.871750105256,1.33869419209869]}},{"title":"Waterway Point","address":"83 Punggol Central, #B2-K12, Singapore 828761","openingHours":"Mon - Sun: 7.30am - 9.45pm (Last Order is half an hour before closing time)","phone":"+65 6635 8795","chain":"Ya Kun","location":{"type":"Point","coordinates":[103.902130352627,1.40640964880099]}},{"title":"Yew Tee Point","address":"21 Choa Chu Kang North 6, #01-46/47/48, Singapore 689578","openingHours":"Mon - Sun: 7.30am - 10.00pm (Last Order is half an hour before closing time)","phone":"+65 6834 4686","chain":"Ya Kun","location":{"type":"Point","coordinates":[103.746443198224,1.39696992267974]}},{"title":"Westgate","address":"3 Gateway Drive, #B1-K1 to K4, ​Singapore 608532","openingHours":"Mon - Sun: 7.30am - 10.00pm (Last Order is half an hour before closing time)","phone":"+65 6969 4279","chain":"Ya Kun","location":{"type":"Point","coordinates":[103.742586014944,1.33402529481694]}},{"title":"Anchorvale Village","address":"339A Anchorvale Road #B1-04,  ​Singapore 541339","openingHours":"Mon - Sun: 7.30am - 10.00pm (Last Order is half an hour before closing time)","phone":"+65 6802 7569","chain":"Ya Kun","location":{"type":"Point","coordinates":[103.888163267028,1.39654467711695]}},{"title":"AMK Hub","address":"53 Ang Mo Kio Avenue #B1-63, Singapore 569933","openingHours":"Mon - Sun: 7:30am - 10:00pm (Last order half before closing time)","phone":"","chain":"Ya Kun","location":{"type":"Point","coordinates":[103.848693181185,1.36923561405404]}},{"title":"313@Somerset","address":"313 Orchard Road #01-32/33/34, Singapore 238895","openingHours":"Mon - Sun: 7.30am - 10.00pm (Last Order is half an hour before closing time)","phone":"","chain":"Ya Kun","location":{"type":"Point","coordinates":[103.838360664485,1.30101436404056]}},{"title":"Citylink","address":"1 Raffles Link #B1-04, Singapore 039393","openingHours":"Mon - Fri: 7:30am - 9:00pm Sat, Sun &PH: Closed (Last Order is half an hour before closing time)","phone":"","chain":"Ya Kun","location":{"type":"Point","coordinates":[103.854173501417,1.2927777312893]}},{"title":"Punggol Coast Mall","address":"New Punggol Road #02-53 Punggol Digital District, Singapore 828604","openingHours":"Mon - Sun: 7:30am - 10:00pm (Last order half before closing time)","phone":"","chain":"Ya Kun","location":{"type":"Point","coordinates":[103.910166388177,1.41492733388605]}},{"title":"The Cathay","address":"2 Handy Road #B1-134, Singapore 229233","openingHours":"Mon - Sun: 7:30am - 8:30pm (Last Order is half an hour before closing time)","phone":"","chain":"Ya Kun","location":{"type":"Point","coordinates":[103.847935402068,1.2992513547639]}}],"KOI":[{"chain":"KOI","title":"PDD (KOI Thé)","phone":"(+65) 69200858","openingHours":"11:00-21:00","address":"84 Punggol Way #01-85 Punggol Coast Mall, Tower 3, Singapore 829911","location":{"type":"Point","coordinates":[103.908235308668,1.41455331350836]}},{"chain":"KOI","title":"UBI (KOI Thé)","phone":"(+65) 69939668","openingHours":"10:30-22:00","address":"Blk 302 Ubi Avenue 1 #01-35, Singapore 400302","location":{"type":"Point","coordinates":[103.900995405582,1.33002586987709]}},{"chain":"KOI","title":"i12 Katong (Signature KOI)","phone":"(+65) 9234-3981","openingHours":"11:00-21:00 (Mon-Thu) / 11:00-22:00 (Fri) / 10:00-22:00 (Sat) / 10:00-21:30 (Sun)","address":"112 East Coast Road, #01-21, i12 Katong, Singapore 428802","location":{"type":"Point","coordinates":[103.905046110228,1.30520653617341]}},{"chain":"KOI","title":"Star Vista (Signature KOI)","phone":"(+65) 6988-2952","openingHours":"11:00-22:00 (Mon-Thu) / 10:30-22:00 (Fri-Sun)","address":"1, Vista Exchange Green, The Star Vista #01-06, Singapore 138617","location":{"type":"Point","coordinates":[103.788287276561,1.30695082420353]}},{"chain":"KOI","title":"Suntec City Mall (Signature KOI)","phone":"(+65) 6931-5497","openingHours":"11:00-22:00","address":"3 Temasek Boulevard #01-429/430 Suntec City Mall Singapore 038983","location":{"type":"Point","coordinates":[103.860333693777,1.29485990186642]}},{"chain":"KOI","title":"Fernvale Community Club (KOI Thé)","phone":"(+65) 8349-6814","openingHours":"11:00-22:00 (Mon-Thu) / 10:00-22:00 (Fri-Sun, PH)","address":"21 Sengkang West Avenue #01-02 Fernvale Community Club, Singapore 797650","location":{"type":"Point","coordinates":[103.877000446561,1.39172552064567]}},{"chain":"KOI","title":"Aperia Mall (KOI Thé)","phone":"(+65) 6993-5584","openingHours":"10:00-22:00","address":"13 Kallang Ave, #01-27 Aperia Mall, Singapore 399511","location":{"type":"Point","coordinates":[103.88313083411,1.31170105851241]}},{"chain":"KOI","title":"Suntec City Mall (KOI Thé)","phone":"(+65) 6931-5497","openingHours":"10:00-21:00","address":"3 Temasek Boulevard #01-432, Suntec City Mall, Singapore 038983","location":{"type":"Point","coordinates":[103.860333693777,1.29485990186642]}},{"chain":"KOI","title":"The Centrepoint (KOI Thé)","phone":"(+65) 6931-2622","openingHours":"11:00-22:00","address":"176 Orchard Rd, #B1-K2 The Centrepoint, Singapore 238843","location":{"type":"Point","coordinates":[103.839759023144,1.30197836876806]}},{"chain":"KOI","title":"myVillage (KOI Thé Express)","phone":"(+65) 6993-9890","openingHours":"11:00-21:00","address":"1 Maju Avenue, #01-07, myVillage, Singapore 556679","location":{"type":"Point","coordinates":[103.865159501442,1.36511490572797]}},{"chain":"KOI","title":"IMM (KOI Thé)","phone":"(+65) 6974-0095","openingHours":"11:00-22:00 (Mon-Thu) / 10:00-22:00 (Fri-Sun, PH)","address":"2 Jurong East Street 21 #01-58, IMM Building, Singapore 609601","location":{"type":"Point","coordinates":[103.746894773008,1.33487526118006]}},{"chain":"KOI","title":"Redhill MRT (KOI Thé Express)","phone":"(+65) 6513-7628","openingHours":"11:00-22:00","address":"920 Tiong Bahru Rd, Redhill MRT #01-08, Singapore 158792","location":{"type":"Point","coordinates":[103.81674097205,1.28963453412887]}},{"chain":"KOI","title":"Funan (KOI Thé)","phone":"(+65) 6974-7520","openingHours":"11:00-22:00","address":"107 North Bridge Rd, Funan #B2-K17, Singapore 179105","location":{"type":"Point","coordinates":[103.849989790085,1.29134759697794]}},{"chain":"KOI","title":"Wisma Atria (KOI Thé Express)","phone":"(+65) 6974-7170","openingHours":"11:00-22:00","address":"435 Orchard Road #B1-03, Wisma Atria, Singapore 238877","location":{"type":"Point","coordinates":[103.833189592785,1.30369890679412]}},{"chain":"KOI","title":"Bendemeer Shopping Mall (KOI Thé)","phone":"(+65) 6816-0984","openingHours":"11:00-21:00","address":"25 Bendemeer Rd #01-583, Bendemeer Shopping Mall, Singapore 330025","location":{"type":"Point","coordinates":[103.862702893919,1.31868262266763]}},{"chain":"KOI","title":"Admiralty Place (KOI Thé Express)","phone":"(+65) 6974-7405","openingHours":"10:30-22:00","address":"Blk 678A Woodlands Avenue 6, Admiralty Place #01-07A, Singapore 731678","location":{"type":"Point","coordinates":[103.801537354932,1.44036367556377]}},{"chain":"KOI","title":"One Raffles Place (KOI Thé)","phone":"(+65) 6931-9203","openingHours":"10:00-20:00 (Mon-Fri) / Closed on Sat, Sun & PH","address":"Shopping Podium at Tower 1 #B1-09, One Raffles Place, Singapore 048616","location":{"type":"Point","coordinates":[103.851072545834,1.28434954622306]}},{"chain":"KOI","title":"Paragon (KOI Thé)","phone":"(+65) 6920-7214","openingHours":"11:00-21:30","address":"290 Orchard Road #B1-33, Paragon, Singapore 238859","location":{"type":"Point","coordinates":[103.83524031199,1.30372322368856]}},{"chain":"KOI","title":"Khatib (KOI Thé)","phone":"(+65) 6025-5797","openingHours":"11:00-22:00 (Mon-Thu) / 10:00-22:00 (Fri-Sun, PH)","address":"Blk 846 Yishun Ring Road #01-3649, Singapore 760846","location":{"type":"Point","coordinates":[103.834641579241,1.41678634718118]}},{"chain":"KOI","title":"Braddell (KOI Thé)","phone":"(+65) 6974-6916","openingHours":"11:00-21:00","address":"109 Lorong 1 Toa Payoh #01-302, Singapore 310109","location":{"type":"Point","coordinates":[103.846202460812,1.34123727120826]}},{"chain":"KOI","title":"Parkway Parade (KOI Thé)","phone":"(+65) 6025-3753","openingHours":"12:00-21:00","address":"80 Marine Parade Road #01-K32, Parkway Parade, Singapore 449269","location":{"type":"Point","coordinates":[103.90533928065,1.30091736056425]}},{"chain":"KOI","title":"Rivervale Mall (KOI Thé Express)","phone":"(+65) 6025-4214","openingHours":"11:00-21:30","address":"11 Rivervale Crescent #01-04A, Rivervale Mall, Singapore 545082","location":{"type":"Point","coordinates":[103.904483668323,1.39250410994833]}},{"chain":"KOI","title":"Heartland Mall (KOI Thé)","phone":"(+65) 6025-3787","openingHours":"11:00-22:00 (Mon-Thu) / 10:00-22:00 (Fri-Sun, PH)","address":"205 Hougang Street 21, Heartland Mall #01-16, Singapore 530205","location":{"type":"Point","coordinates":[103.885167372726,1.35954177325561]}},{"chain":"KOI","title":"The Woodleigh Mall (KOI Thé)","phone":"(+65) 6025-2245","openingHours":"11:00-22:00","address":"11 Bidadari Park Drive #B1-K53, The Woodleigh Mall, Singapore 367803","location":{"type":"Point","coordinates":[103.871750105256,1.33869419209869]}},{"chain":"KOI","title":"Jewel Basement (KOI Thé Express)","phone":"(+65) 8943-0857","openingHours":"11:30-21:00 (Sun-Thu) / 11:00-21:30 (Fri-Sat, PH)","address":"78 Airport Boulevard #B2-263, Jewel Changi Airport, Singapore 819666","location":{"type":"Point","coordinates":[103.98907755021,1.3603410066102]}},{"chain":"KOI","title":"Limbang Shopping Centre (KOI Thé)","phone":"(+65) 6993-3656","openingHours":"11:00-22:00","address":"Blk 533 Choa Chu Kang Street 51 #01-24, Singapore 680533","location":{"type":"Point","coordinates":[103.743099576162,1.39207387937105]}},{"chain":"KOI","title":"Sengkang Grand Mall (KOI Thé Express)","phone":"(+65) 6816-0071","openingHours":"11:00-21:00","address":"70 Compassvale Bow #B1-05, Singapore 544692","location":{"type":"Point","coordinates":[103.892318220824,1.38381228170133]}},{"chain":"KOI","title":"Outram Community Hospital (KOI Thé)","phone":"(+65) 6592-4611","openingHours":"11:00-21:00","address":"10 Hospital Boulevard #01-01, Singapore 168582","location":{"type":"Point","coordinates":[103.835624220901,1.27754387747302]}},{"chain":"KOI","title":"Sengkang General Hospital (KOI Thé)","phone":"(+65) 6993-7677","openingHours":"11:00-21:00","address":"1 Anchorvale Street #01-24, Singapore 544835","location":{"type":"Point","coordinates":[103.891834051543,1.39602238832875]}},{"chain":"KOI","title":"Canberra MRT (KOI Thé Express)","phone":"(+65) 6514-2512","openingHours":"11:00-21:00","address":"11 Canberra Link, #02-01, Singapore 756972","location":{"type":"Point","coordinates":[103.829702590959,1.44307664075699]}},{"chain":"KOI","title":"100AM (KOI Thé)","phone":"(+65) 6993-9011","openingHours":"11:00-21:30","address":"100 Tras Street #01-15A, 100 AM, Singapore 079027","location":{"type":"Point","coordinates":[103.843488359469,1.27468281482263]}},{"chain":"KOI","title":"Oasis Terraces (KOI Thé)","phone":"(+65) 6957-2232","openingHours":"11:00-22:00 (Mon-Fri) / 10:00-22:00 (Sat-Sun)","address":"681 Punggol Drive #01-30, Singapore 820681","location":{"type":"Point","coordinates":[103.913215101343,1.40278015725693]}},{"chain":"KOI","title":"Thomson Plaza (KOI Thé)","phone":"(+65) 6816-3630","openingHours":"11:00-22:00 (Mon-Fri) / 10:00-22:00 (Sat-Sun, PH)","address":"301 Upper Thomson Road #01-18, Thomson Plaza, Singapore 574408","location":{"type":"Point","coordinates":[103.830919782333,1.35466902496424]}},{"chain":"KOI","title":"Joo Koon MRT (KOI Thé Express)","phone":"(+65) 6250-9815","openingHours":"11:00-21:00 / Closed on Sat, Sun & PH","address":"91 Joo Koon Circle #02-02, Singapore 629116","location":{"type":"Point","coordinates":[103.678374996165,1.3277170408447]}},{"chain":"KOI","title":"Hillview Community Club (KOI Thé)","phone":"(+65) 6993-9755","openingHours":"11:00-21:00 (Mon-Thu) / 11:00-22:00 (Fri-Sun)","address":"1 Hillview Rise, #01-K1, Singapore 667970","location":{"type":"Point","coordinates":[103.764266382093,1.3619672534168]}},{"chain":"KOI","title":"United Square (KOI Thé)","phone":"(+65) 6993-9754","openingHours":"11:00-21:00","address":"101 Thomson Road #B1-60, Singapore 307591","location":{"type":"Point","coordinates":[103.843670754851,1.31742800767635]}},{"chain":"KOI","title":"Anchorpoint (KOI Thé)","phone":"(+65) 6816-1700","openingHours":"12:00-21:00 (Mon-Thu) / 11:30-21:30 (Fri-Sun)","address":"370 Alexandra Road #01-37, Singapore 159953","location":{"type":"Point","coordinates":[103.805009964592,1.28861469030586]}},{"chain":"KOI","title":"National University Hospital (KOI Thé Express)","phone":"(+65) 6993-6848","openingHours":"10:00-20:00 (Mon-Fri) / 10:00-19:00 (Sat-Sun, PH)","address":"1 Lower Kent Ridge #1-14, Singapore 119082","location":{"type":"Point","coordinates":[103.784084020155,1.29277432702258]}},{"chain":"KOI","title":"Northshore Plaza (KOI Thé)","phone":"(+65) 6993-5374","openingHours":"11:00-22:00","address":"407 Northshore Drive #1-K3, K4, K5, Singapore 820407","location":{"type":"Point","coordinates":[103.902074379502,1.41676127156324]}},{"chain":"KOI","title":"Square 2 (KOI Thé Express)","phone":"(+65) 6327-9095","openingHours":"11:00-20:00 (Mon-Sun)","address":"10 Sinaran Drive #B1-115/116, Singapore 307506","location":{"type":"Point","coordinates":[103.844192628979,1.32044103104797]}},{"chain":"KOI","title":"Woodlands MRT (Thomson-East Coast Line) (KOI Thé Express)","phone":"(+65) 6592-5271","openingHours":"12:00-21:00 (Mon-Sun)","address":"Thomson-East Coast Line #B1-26, 11 Woodlands Square, Singapore 737736","location":{"type":"Point","coordinates":[103.787378796736,1.43730091101476]}},{"chain":"KOI","title":"Clementi Mall (KOI Thé)","phone":"(+65) 6993-0928","openingHours":"10:00-22:00","address":"3155 Commonwealth Ave W #01-04, Singapore 129588","location":{"type":"Point","coordinates":[103.764270467593,1.31496652285558]}},{"chain":"KOI","title":"One North MRT (KOI Thé Express)","phone":"(+65) 6592-0485","openingHours":"10:30-20:00 (Mon-Fri) / Closed on Sat, Sun & PH","address":"6 Ayer Rajah Avenue, #B2-01, Singapore 138647","location":{"type":"Point","coordinates":[103.78745750525,1.29975987493555]}},{"chain":"KOI","title":"Holland Village MRT (KOI Thé Express)","phone":"(+65) 6592-4614","openingHours":"11:00-22:00","address":"201 Holland Avenue, #B1-06,  Singapore 278995","location":{"type":"Point","coordinates":[103.796399122407,1.31224029631595]}},{"chain":"KOI","title":"Bukit Gombak MRT (KOI Thé Express)","phone":"(+65) 6908-1522","openingHours":"10:00-22:00","address":"802 Bukit Batok West Avenue 5, #01-15 Bukit Gombak MRT Station, Singapore 659083","location":{"type":"Point","coordinates":[103.751790910733,1.35861159094192]}},{"chain":"KOI","title":"Paya Lebar Quarter (KOI Thé)","phone":"(+65) 6974-3428","openingHours":"10:00-22:00","address":"10 Paya Lebar Road #B1-02, Paya Lebar Quarter, Singapore(409057)","location":{"type":"Point","coordinates":[103.893414663597,1.31770886898996]}},{"chain":"KOI","title":"Downtown East (KOI Thé)","phone":"(+65) 6459-1518","openingHours":"12:00-21:00 (Mon-Thu) / 10:00-22:00 (Fri-Sun, PH & School Holidays)","address":"1 Pasir Ris Close #01-341, Downtown East, Singapore(519599)","location":{"type":"Point","coordinates":[103.95514122442,1.3766980678365]}},{"chain":"KOI","title":"Great World City (KOI Thé)","phone":"(+65) 6920-2558","openingHours":"10:00-22:00","address":"1 Kim Seng Promenade, #01-125 Great World City, Singapore(237994)","location":{"type":"Point","coordinates":[103.831757911057,1.29380235105066]}},{"chain":"KOI","title":"Junction 8 (KOI Thé)","phone":"(+65) 6258-1729","openingHours":"10:00-22:00","address":"Junction 8 Shopping Centre, 9 Bishan Place, #02-26, Singapore(579837)","location":{"type":"Point","coordinates":[103.848826189269,1.35042215656701]}},{"chain":"KOI","title":"Plaza Singapura (KOI Thé)","phone":"(+65) 6815-1198","openingHours":"11:00-22:00","address":"68 Orchard Road #B2-11 Plaza Singapura,, Singapore(238839)","location":{"type":"Point","coordinates":[103.845067272666,1.30082071769235]}},{"chain":"KOI","title":"Ang Mo Kio Hub (KOI Thé)","phone":"(+65) 6815-2976","openingHours":"10:00-22:00","address":"53 Ang Mo Kio Ave 3 #01-44,, Singapore(569933)","location":{"type":"Point","coordinates":[103.848693181185,1.36923561405404]}},{"chain":"KOI","title":"Sun Plaza Mall (KOI Thé)","phone":"(+65) 6957-6488","openingHours":"10:00-22:00","address":"30 Sembawang Drive #02-09 Sun Plaza, Singapore(757713)","location":{"type":"Point","coordinates":[103.819498634275,1.44819666623789]}},{"chain":"KOI","title":"North Point City (KOI Thé Express)","phone":"(+65) 6957-4203","openingHours":"10:00-22:00","address":"1 Northpoint Drive, South Wing of Northpoint City #B2-157, Singapore(768019)","location":{"type":"Point","coordinates":[103.836324536111,1.42875460572994]}},{"chain":"KOI","title":"Tiong Bahru Plaza (KOI Thé)","phone":"(+65) 6816-0728","openingHours":"10:00-22:00","address":"302 Tiong Bahru Road #01-155,, Singapore(168732)","location":{"type":"Point","coordinates":[103.826935079694,1.28646345355064]}},{"chain":"KOI","title":"Takashimaya (KOI Thé Express)","phone":"(+65) 6815-5488","openingHours":"11:00-21:30 (Sun-Thu) / 11:00-22:00 (Fri-Sat)","address":"391 Orchard Road #B2-37C, Takashimaya Shopping Centre, Ngee Ann City, S (238872)","location":{"type":"Point","coordinates":[103.835181912297,1.30224168528687]}},{"chain":"KOI","title":"Raffles City (KOI Thé Express)","phone":"(+65) 6931-1040","openingHours":"11:00-21:30 (Sun-Thu, PH) / 11:00-22:00 (Fri-Sat, PH Eve)","address":"252 North Bridge Road #B1-71,Singapore 179103, Raffles City Shopping Centre,, Singapore(179103)","location":{"type":"Point","coordinates":[103.853119904656,1.29389357863312]}},{"chain":"KOI","title":"HarbourFront Centre (KOI Thé)","phone":"(+65) 6920-6729","openingHours":"10:00-22:00","address":"1 Maritime Square #01-67A, Harbourfront Centre, Singapore(099253)","location":{"type":"Point","coordinates":[103.82005101011,1.26401293230767]}},{"chain":"KOI","title":"Tampines Mall (KOI Thé)","phone":"(+65) 6443-6502","openingHours":"10:00-22:00","address":"4 Tampines Central 5 #02-K3B, Tampines Mall, Singapore(529510)","location":{"type":"Point","coordinates":[103.944682574769,1.35250468330971]}},{"chain":"KOI","title":"Novena Square (KOI Thé)","phone":"(+65) 6266-1857","openingHours":"10:00-22:00","address":"238 Thomson Road #01-61, Novena Square, Singapore(307683)","location":{"type":"Point","coordinates":[103.843850630993,1.31996748439185]}},{"chain":"KOI","title":"Hillion Mall (KOI Thé)","phone":"(+65) 6252-1041","openingHours":"10:00-22:00","address":"17 Petir Road #B2-53, Hillion Mall, Singapore(678278)","location":{"type":"Point","coordinates":[103.762842789877,1.37843100800213]}},{"chain":"KOI","title":"Jurong Point (KOI Thé)","phone":"(+65) 6266-0287","openingHours":"10:00-22:00","address":"1 Jurong West Central 2 #02-41C, Jurong Point, Singapore(648886)","location":{"type":"Point","coordinates":[103.706685012926,1.3394520043632]}},{"chain":"KOI","title":"Woodlands MRT (KOI Thé)","phone":"(+65) 6362-1608","openingHours":"10:00-22:00","address":"30 Woodlands Avenue 2 #01-16, Woodlands MRT, Singapore(738343)","location":{"type":"Point","coordinates":[103.785325969402,1.43681436169078]}},{"chain":"KOI","title":"Eastpoint Mall (KOI Thé)","phone":"(+65) 6443-5874","openingHours":"11:00-22:00","address":"3 Simei Street 6 #01-08, Eastpoint Mall, Singapore(528833)","location":{"type":"Point","coordinates":[103.953024618234,1.34270592355576]}},{"chain":"KOI","title":"Chinatown Point (KOI Thé)","phone":"(+65) 6221-2140","openingHours":"10:00-22:00","address":"133 New Bridge Road #01-39, Chinatown Point, Singapore(059413)","location":{"type":"Point","coordinates":[103.844697081142,1.28499882847401]}},{"chain":"KOI","title":"Waterway Point (KOI Thé Express)","phone":"(+65) 6385-9396","openingHours":"10:30-22:00","address":"83 Punggol Central #B1-K2, Waterway Point, Singapore(828761)","location":{"type":"Point","coordinates":[103.902130352627,1.40640964880099]}},{"chain":"KOI","title":"White Sands (KOI Thé)","phone":"(+65) 6384-5016","openingHours":"10:00~22:00","address":"1 Pasir Ris Central St.3 #01-32, White Sands mall, Singapore(518457)","location":{"type":"Point","coordinates":[103.949763493981,1.3724564071358]}},{"chain":"KOI","title":"Tampines MRT (KOI Thé Express)","phone":"(+65) 6223-1045","openingHours":"10:00-22:00","address":"20 Tampines Central 1, #01-14 , Singapore(529538)","location":{"type":"Point","coordinates":[103.945042729998,1.35369188683393]}},{"chain":"KOI","title":"Yew Tee MRT (KOI Thé)","phone":"(+65) 6765-7184","openingHours":"10:00-22:00","address":"61 Choa Chu Kang Drive #01-03, Yew Tee MRT, Singapore(689715)","location":{"type":"Point","coordinates":[103.747405150236,1.39753506936297]}},{"chain":"KOI","title":"Ion Orchard (KOI Thé)","phone":"(+65) 6509-3084","openingHours":"11:00-22:00","address":"2 Orchard Turn # B4-35, ION Orchard, Singapore(238801)","location":{"type":"Point","coordinates":[103.832032328465,1.30397974144505]}},{"chain":"KOI","title":"Seletar Mall (KOI Thé Express)","phone":"(+65) 6702-4836","openingHours":"10:30-22:30","address":"33 Sengkang West Ave #B1-K6, Seletar Mall, Singapore(797653)","location":{"type":"Point","coordinates":[103.876085067727,1.39130622992517]}},{"chain":"KOI","title":"Bukit Batok MRT (KOI Thé Express)","phone":"(+65) 6563-1496","openingHours":"10:00-22:00","address":"10 Bukit Batok Central #01-07, Bukit Batok MRT, Singapore(659958)","location":{"type":"Point","coordinates":[103.749566478309,1.34903331201636]}},{"chain":"KOI","title":"Ang Mo Kio MRT (KOI Thé Express)","phone":"(+65) 6459-3763","openingHours":"10:30-22:30","address":"2450 Ang Mo Kio Ave8 #01-05, Ang Mo Kio MRT, Singapore(569811)","location":{"type":"Point","coordinates":[103.849558091776,1.36993284962264]}},{"chain":"KOI","title":"Hougang Mall (KOI Thé)","phone":"(+65) 6343-4234","openingHours":"10:00-22:00","address":"90 Hougang Ave 10, #01-15 Singapore, Singapore(538766)","location":{"type":"Point","coordinates":[103.893883460466,1.37253315637342]}},{"chain":"KOI","title":"Boon Lay MRT (KOI Thé Express)","phone":"(+65) 6795-6342","openingHours":"10:30-22:30","address":"301 Boon Lay way #01-34, Boon Lay MRT, Singapore(649846)","location":{"type":"Point","coordinates":[103.706064622772,1.33860405469845]}},{"chain":"KOI","title":"Paya Lebar MRT (KOI Thé Express)","phone":"(+65) 6743-1200","openingHours":"10:00-22:00","address":"30 Paya Lebar Rd. #01-04, Paya Lebar MRT, Singapore(409006)","location":{"type":"Point","coordinates":[103.893060771576,1.31811149224527]}},{"chain":"KOI","title":"Changi City Point (KOI Thé Express)","phone":"(+65) 6636-0347","openingHours":"11:00-21:30","address":"5 Changi Business Park Central 1 #B1-18, Changi City Point, Singapore(486038)","location":{"type":"Point","coordinates":[103.962946083391,1.33408359331373]}},{"chain":"KOI","title":"City Square Mall (KOI Thé Express)","phone":"(+65) 6634-9361","openingHours":"10:00-22:00","address":"180 Kitchener Road #B1-K6, City Square Mall, Singapore(208539)","location":{"type":"Point","coordinates":[103.856624019991,1.31142103107683]}},{"chain":"KOI","title":"NEX (KOI Thé)","phone":"(+65) 6634-8623","openingHours":"10:00-22:00 (Sun-Thu) / 10:00-22:30 (Fri-Sat)","address":"23 Serangoon Central #B1-07, NEX Mall, Singapore(556083)","location":{"type":"Point","coordinates":[103.871861623874,1.35067551435975]}},{"chain":"KOI","title":"Changi Airport T3 (KOI Thé)","phone":"(+65) 6543-2080","openingHours":"11:00-21:00","address":"65 Airport Boulevard #B2-12, Changi Airport Terminal 3, Singapore(819663)","location":{"type":"Point","coordinates":[103.986211815854,1.35640628728788]}},{"chain":"KOI","title":"313@Somerset (KOI Thé Express)","phone":"(+65) 6835-9476","openingHours":"11:00-21:30 (Sun-Thu, PH) / 11:00-22:00 (Fri-Sat, PH Eve)","address":"313 Orchard Rd #B3-51, 313@Somerset, Singapore(238895)","location":{"type":"Point","coordinates":[103.838360664485,1.30101436404056]}},{"chain":"KOI","title":"VivoCity (KOI Thé)","phone":"(+65) 6272-4085","openingHours":"10:30-22:30","address":"1 Harbourfront Walk #B2-06B, VivoCity, Singapore(098585)","location":{"type":"Point","coordinates":[103.82207343835,1.26431382492761]}},{"chain":"KOI","title":"Millenia Walk (KOI Thé)","phone":"(+65) 6336-9427","openingHours":"11:00-21:00","address":"9 Raffles Boulevard #01-85, Millenia Walk, Singapore(039596)","location":{"type":"Point","coordinates":[103.859724944443,1.29260544462492]}},{"chain":"KOI","title":"Buona Vista MRT (KOI Thé)","phone":"(+65) 6779-5643","openingHours":"11:00-22:00","address":"100 North Buona Vista Road #1-02/03, Buona Vista MRT, Singapore(139345)","location":{"type":"Point","coordinates":[103.788696211509,1.30768350227128]}},{"chain":"KOI","title":"Yishun 10 (KOI Thé)","phone":"(+65) 6754-7639","openingHours":"10:30-22:30","address":"51 Yishun Central 1 #01-02, Yishun 10 Multiplex, Singapore(768794)","location":{"type":"Point","coordinates":[103.836473396124,1.42991554202388]}},{"chain":"KOI","title":"Westgate Mall (KOI Thé)","phone":"(+65) 6569-0271","openingHours":"10:00-22:00","address":"3 Gateway Drive #B1-K12, Westgate, Singapore(608532)","location":{"type":"Point","coordinates":[103.742586014944,1.33402529481694]}},{"chain":"KOI","title":"Compass One (KOI Thé)","phone":"(+65) 6881-8470","openingHours":"10:30-22:30","address":"1 Sengkang Square #01-19, Compass One Mall, Singapore(545078)","location":{"type":"Point","coordinates":[103.89507054384,1.39205314156706]}},{"chain":"KOI","title":"Bedok Mall (KOI Thé)","phone":"(+65) 6246-1780","openingHours":"10:00-22:00","address":"311 New Upper Changi Road #01-97, Bedok Mall, Singapore(467360)","location":{"type":"Point","coordinates":[103.929256259726,1.32473632812103]}},{"chain":"KOI","title":"Tampines (KOI Thé)","phone":"(+65) 6789-9106","openingHours":"10:00-22:00","address":"BLK 510 Tampines Center 1 #01-250, Singapore(520510)","location":{"type":"Point","coordinates":[103.944458085324,1.35480107982353]}},{"chain":"KOI","title":"Bugis+ (KOI Thé)","phone":"(+65) 6884-6817","openingHours":"10:00-22:00","address":"201 Victoria Street #01-01 Bugis+, Singapore(188067)","location":{"type":"Point","coordinates":[103.853518084567,1.29966016502847]}},{"chain":"KOI","title":"Toa Payoh (KOI Thé)","phone":"(+65) 6256-1169","openingHours":"10:00-22:00","address":"BLK 490 Lorong 6 Toa Payoh #01-23, Singapore(310490)","location":{"type":"Point","coordinates":[103.848267915547,1.3325746127759]}}],"Each-A-Cup":[{"title":"Telok Blangah ","address":"Blk 78A Telok Blangah Street 32  #01-10  Singapore 101078","openingHours":"9:30am - 9:30pm (Monday to Sunday)","phone":"","chain":"Each-A-Cup","location":{"type":"Point","coordinates":[103.808980553946,1.27338751489362]}},{"title":"Dawson Road - 85","address":"Blk 85 Dawson Road  #01-03  Singapore 141085","openingHours":"10:00am - 9:30pm (Monday to Sunday)","phone":"","chain":"Each-A-Cup","location":{"type":"Point","coordinates":[103.809758591447,1.29531966312622]}},{"title":"Bukit Merah View - 116","address":"Blk 116 Bukit Merah View #01-245  Singapore 151116","openingHours":"10:00am - 9:00pm (Monday to Sunday)","phone":"","chain":"Each-A-Cup","location":{"type":"Point","coordinates":[103.821532226321,1.28513427067055]}},{"title":"ION Orchard","address":"2 Orchard Turn,  B4-69  Singapore 238801","openingHours":"10:00am - 9:00pm (Monday to Sunday)","phone":"","chain":"Each-A-Cup","location":{"type":"Point","coordinates":[103.832032328465,1.30397974144505]}},{"title":"Holland Village MRT","address":"200 Holland Ave #B1-12   Singapore 278995","openingHours":"10:00am - 10:00pm (Monday to Sunday)","phone":"","chain":"Each-A-Cup","location":{"type":"Point","coordinates":[103.796399122407,1.31224029631595]}},{"title":"Toa Payoh - 111","address":"Blk 111 Lorong 1 Toa Payoh,  #01-364 Singapore 310111","openingHours":"10:30am - 10:30pm daily","phone":"","chain":"Each-A-Cup","location":{"type":"Point","coordinates":[103.845306137194,1.34123713837195]}},{"title":"Toa Payoh - 177","address":"Blk 177 Toa Payoh Central  #01-154  Singapore 310177","openingHours":"10:00am - 10:00pm (Monday to Sunday)","phone":"","chain":"Each-A-Cup","location":{"type":"Point","coordinates":[103.848854818382,1.33390034057387]}},{"title":"The Poiz Centre           ","address":"51 Upper Serangoon Road  #01-10 The Poiz Centre Singapore 347697","openingHours":"10:00am - 10:00pm (Monday to Sunday)","phone":"","chain":"Each-A-Cup","location":{"type":"Point","coordinates":[103.86821402533,1.33149708073624]}},{"title":"Marsiling Rise - 132","address":"132 Marsiling Rise  #01-214  Singapore 730132","openingHours":"10:00am - 10:00pm","phone":"","chain":"Each-A-Cup","location":{"type":"Point","coordinates":[103.778025758394,1.43828189832914]}},{"title":"Woodlands 888","address":"888 Woodlands Drive 50  #01-747 888 Plaza  Singapore 730888","openingHours":"10:00am - 10:00pm","phone":"","chain":"Each-A-Cup","location":{"type":"Point","coordinates":[103.795314383823,1.43712301500434]}},{"title":"Woodlands South MRT","address":"30 Woodlands Drive 17 #B1-02 Woodlands South MRT Singapore 737741","openingHours":"11:00am - 10:00pm","phone":"","chain":"Each-A-Cup","location":{"type":"Point","coordinates":[103.793256604541,1.4276360165594]}},{"title":"Causeway Point","address":"1 Woodlands Square  #B1-K19  Singapore 738099","openingHours":"10:00am - 10:00pm","phone":"","chain":"Each-A-Cup","location":{"type":"Point","coordinates":[103.78568873405,1.43600784474269]}},{"title":"Serangoon North Ave 1 - 153","address":"153 Serangoon North Ave 1  #01-484  Singapore 550153","openingHours":"10:00am - 10:00pm","phone":"","chain":"Each-A-Cup","location":{"type":"Point","coordinates":[103.872312298412,1.36995099685808]}},{"title":"Ang Mo Kio - 448","address":"Blk 448 Ang Mo Kio Ave 10  #01-1707 Singapore 560448","openingHours":"10:00am - 10:00pm","phone":"","chain":"Each-A-Cup","location":{"type":"Point","coordinates":[103.856396604517,1.3674419012314]}},{"title":"AMK Hub","address":"53 Ang Mo Kio Avenue 3, #B2-32 AMK Hub Singapore 569933","openingHours":"10:00am - 10:00pm","phone":"","chain":"Each-A-Cup","location":{"type":"Point","coordinates":[103.848693181185,1.36923561405404]}},{"title":"Yishun Street 22 - 293","address":"Blk 293 Yishun Street 22 #01-249  Singapore 760293","openingHours":"10:30am - 9:30pm","phone":"","chain":"Each-A-Cup","location":{"type":"Point","coordinates":[103.837605235958,1.43611425409216]}},{"title":"Yishun - 417","address":"Blk 417 Yishun Ave11  #01-347  Singapore 760417","openingHours":"9:00am - 10:30pm","phone":"","chain":"Each-A-Cup","location":{"type":"Point","coordinates":[103.846329063065,1.4243850673899]}},{"title":"Wisteria Mall","address":"598 Yihsun Ring Road  #01-22  Singapore 768698","openingHours":"10:30am - 10:00pm","phone":"","chain":"Each-A-Cup","location":{"type":"Point","coordinates":[103.841268831617,1.41795288501536]}},{"title":"Hougang - 106","address":"Blk 106 Hougang Ave 1 #01-1229  Singapore 530106","openingHours":"10:00am - 10:00pm","phone":"","chain":"Each-A-Cup","location":{"type":"Point","coordinates":[103.890680792553,1.3537029714401]}},{"title":"Punggol Central 301                   ","address":"301 Punggol Central, #01-05 Singapore 820301","openingHours":"10:00am - 10:00pm","phone":"","chain":"Each-A-Cup","location":{"type":"Point","coordinates":[103.906138006707,1.40371939757402]}},{"title":"Punggol Drive - 612","address":"612 Punggol Drive #01-02  Singapore 820612","openingHours":"10:00am - 9:00pm","phone":"","chain":"Each-A-Cup","location":{"type":"Point","coordinates":[103.908665597491,1.40461003085618]}},{"title":"Sumang - 218","address":"Blk 218 Sumang Walk #01-07  Singapore 821217","openingHours":"10:00am - 10:00pm","phone":"","chain":"Each-A-Cup","location":{"type":"Point","coordinates":[103.895020804883,1.4029859177206]}},{"title":"Jurong East - 345","address":"Blk 345 Jurong East Street 31,  #01-15 Singapore 600345","openingHours":"10:00am - 10:00pm","phone":"","chain":"Each-A-Cup","location":{"type":"Point","coordinates":[103.731219147654,1.34551209957175]}},{"title":"Ng Teng Fong Hospital","address":"1 Jurong East St 21 #02-27 Tower A  Singapore 609606","openingHours":"9:30am - 9:30pm","phone":"","chain":"Each-A-Cup","location":{"type":"Point","coordinates":[103.746634963937,1.33260943666141]}},{"title":"NTU","address":"NTU NS3-01-21  50 Nanyang Ave Singapore 639798","openingHours":"9:00am -9:00pm (Monday to Friday) 9:30am - 7:00pm (Saturday to Sunday)","phone":"","chain":"Each-A-Cup","location":{"type":"Point","coordinates":[103.682773793248,1.34382260860561]}},{"title":"Jurong West","address":"Blk 503 Jurong West Ave 1  #01-831 Singapore 640503","openingHours":"10:30am - 10:30pm","phone":"","chain":"Each-A-Cup","location":{"type":"Point","coordinates":[103.71770480961,1.34995541462242]}},{"title":"Bukit Batok - 153","address":"153 Bukit Batok Street 11  #01-284  Singapore 650153","openingHours":"10:30am - 10:00pm","phone":"","chain":"Each-A-Cup","location":{"type":"Point","coordinates":[103.744276460895,1.34747947805081]}},{"title":"Bangkit Road - 257","address":"Blk 257 Bangkit Road #01-57 Singapore 670257","openingHours":"10:00am - 9:00pm","phone":"","chain":"Each-A-Cup","location":{"type":"Point","coordinates":[103.773212348159,1.37850873559017]}},{"title":"Bukit Panjang Integrated Transport Hub ","address":"15 Petir Road #01-61  Singapore 678270","openingHours":"10:30am - 10:00pm","phone":"","chain":"Each-A-Cup","location":{"type":"Point","coordinates":[103.762842789877,1.37843100827586]}},{"title":"Dover MRT","address":"200 Commonwealth Ave West  #02-02  Singapore 138677","openingHours":"8:00am - 10:00pm (Monday to Friday)  10:00am - 8:00pm (Saturday to Sunday)","phone":"","chain":"Each-A-Cup","location":{"type":"Point","coordinates":[103.778637841909,1.31140529320963]}},{"title":"Senja","address":"101 Bukit Panjang Road  #01-03 Singapore 679910","openingHours":"10:00am - 9:30pm","phone":"","chain":"Each-A-Cup","location":{"type":"Point","coordinates":[103.764676250968,1.3816381331934]}},{"title":"ITE College West","address":"1 Choa Chu Kang Grove #05-01  Singapore 688236","openingHours":" 9:00am - 6:00pm","phone":"","chain":"Each-A-Cup","location":{"type":"Point","coordinates":[103.752407481466,1.37527500765096]}},{"title":"Ubi - 306","address":"Blk 306 Ubi Avenue 1  #01-195  Singapore 400306","openingHours":"10:00am - 10:00pm","phone":"","chain":"Each-A-Cup","location":{"type":"Point","coordinates":[103.901930369733,1.32987117232209]}},{"title":"Bedok North - 89","address":"Blk 89 Bedok North Street 4  #01-81  Singapore 460089","openingHours":"10:00am - 10:30pm","phone":"","chain":"Each-A-Cup","location":{"type":"Point","coordinates":[103.938051284737,1.33233468349262]}},{"title":"New Upper Changi Rd - 208","address":"Blk 208 New Upper Changi Road,  #01-697 Singapore 460208","openingHours":"10:00am - 10:00pm","phone":"","chain":"Each-A-Cup","location":{"type":"Point","coordinates":[103.931074627428,1.32569973464369]}},{"title":"Bedok North - 539","address":"Blk 539 Bedok North St3  #01-611  Singapore 460539","openingHours":"10:30am - 10:30pm","phone":"","chain":"Each-A-Cup","location":{"type":"Point","coordinates":[103.925307290709,1.33131386579703]}},{"title":"New Upper Changi Road - 59","address":"59 New Upper Changi Road #01-1254 Singapore 461059","openingHours":"10:00am - 9:30pm","phone":"","chain":"Each-A-Cup","location":{"type":"Point","coordinates":[103.940695612461,1.32405898618809]}},{"title":"Bedok - 353","address":"353 Bedok Road,  Bedok Town Centre, Singapore 469541","openingHours":"10:30am - 10:30pm","phone":"","chain":"Each-A-Cup","location":{"type":"Point","coordinates":[103.947101310278,1.33149077883945]}},{"title":"Bedok Reservoir - 632","address":"Blk 632 Bedok Reservoir Road  #01-874  Singapore 470632","openingHours":"10:00am - 10:00pm","phone":"","chain":"Each-A-Cup","location":{"type":"Point","coordinates":[103.914145075793,1.33205094618817]}},{"title":"Bedok Reservoir - 746","address":"Blk 746 Bedok Reservoir Road,  #01-3011  Singapore 470746","openingHours":"10:00am - 9:00pm","phone":"","chain":"Each-A-Cup","location":{"type":"Point","coordinates":[103.92121574376,1.33728644805587]}},{"title":"Pasir Ris - 443","address":"443 Pasir Ris Drive 6 #01-14  Singapore 510443","openingHours":"10:00am - 10:00pm","phone":"","chain":"Each-A-Cup","location":{"type":"Point","coordinates":[103.957395750219,1.36940860628198]}},{"title":"Changi Village","address":"Blk 1 Changi Village Roadm #01-2048 Singapore 500001","openingHours":"10:00am - 10:00pm","phone":"","chain":"Each-A-Cup","location":{"type":"Point","coordinates":[103.987804503483,1.38854656229022]}},{"title":"West Plaza","address":"735 Pasir Ris Road #01-360 Pasir Ris West Plaza  Singapore 510735","openingHours":"10:00am - 10:00pm","phone":"","chain":"Each-A-Cup","location":{"type":"Point","coordinates":[103.93627211062,1.37930651921164]}},{"title":"E Avenue ","address":"1 Pasir Ris Close #02-K2 Singapore 519599","openingHours":"10:00am - 9:30pm","phone":"","chain":"Each-A-Cup","location":{"type":"Point","coordinates":[103.95514122442,1.3766980678365]}},